[
  {
    "nom": "ANSELME PHILIPPE",
    "ville": "TALMONT SAINT HILAIRE",
    "date": "Février 2024",
    "puissance": "7,5kwc",
    "lat": 46.4775007,
    "lon": -1.6280266,
    "type": "PV"
  },
  {
    "nom": "BADEAU FRANÇOIS",
    "ville": "BELLEVILLE SUR VIE",
    "date": "Mars 2025",
    "puissance": "6kwc",
    "lat": 46.7842036,
    "lon": -1.4300397,
    "type": "PV"
  },
  {
    "nom": "BARROIS CHRISTIAN",
    "ville": "FOURAS",
    "date": "Juin 2024",
    "puissance": "6kwc",
    "lat": 45.9883689,
    "lon": -1.0935837,
    "type": "PV"
  },
  {
    "nom": "BARTOUIL CAPUCINE",
    "ville": "LA ROCHELLE",
    "date": "Février 2024",
    "puissance": "3kwc",
    "lat": 46.159732,
    "lon": -1.1515951,
    "type": "PV"
  },
  {
    "nom": "BARTOUX BRIGITTE",
    "ville": "DOMPIERRE SUR MER",
    "date": "Novembre 2024",
    "puissance": "4kwc",
    "lat": 46.186001,
    "lon": -1.0656405,
    "type": "PV"
  },
  {
    "nom": "BEAUPIN CÉDRIC",
    "ville": "MARANS",
    "date": "Août 2024",
    "puissance": "7kwc",
    "lat": 46.3101338,
    "lon": -0.9940538,
    "type": "PV"
  },
  {
    "nom": "BELMONTET BRUNO",
    "ville": "CHAILLE LES MARAIS",
    "date": "Juin 2025",
    "puissance": "3kwc",
    "lat": 46.398877,
    "lon": -1.0251604,
    "type": "PV"
  },
  {
    "nom": "BERNARD FREDERIC",
    "ville": "NIEUL SUR MER",
    "date": "Janvier 2025",
    "puissance": "6kwc",
    "lat": 46.2069355,
    "lon": -1.1639199,
    "type": "PV"
  },
  {
    "nom": "BILLON GERARD",
    "ville": "LA ROCHELLE",
    "date": "Avril 2024",
    "puissance": "6kwc",
    "lat": 46.159732,
    "lon": -1.1515951,
    "type": "PV"
  },
  {
    "nom": "BOUILLAUD MIKAEL",
    "ville": "L'ILE D'ELLE",
    "date": "Février 2025",
    "puissance": "6kwc",
    "lat": 46.3316667,
    "lon": -0.9480556,
    "type": "PV"
  },
  {
    "nom": "BOULLIC LAURENT",
    "ville": "NIORT",
    "date": "Mars 2024",
    "puissance": "3kwc",
    "lat": 46.3239233,
    "lon": -0.4646064,
    "type": "PV"
  },
  {
    "nom": "BOURDET CLAUDE",
    "ville": " SAINT HILAIRE DES LOGES",
    "date": "Juin 2024",
    "puissance": "3kwc",
    "lat": 46.4706005,
    "lon": -0.6656039,
    "type": "PV"
  },
  {
    "nom": "BRAQUEHAIS LAURENT",
    "ville": "LA ROCHELLE",
    "date": "Octobre 2024",
    "puissance": "3kwc",
    "lat": 46.159732,
    "lon": -1.1515951,
    "type": "PV"
  },
  {
    "nom": "BUSO LUC",
    "ville": "LA FERRIERE",
    "date": "Mai 2024",
    "puissance": "3kwc",
    "lat": 46.7203,
    "lon": -1.6983,
    "type": "PV"
  },
  {
    "nom": "CAMILLE BRUNO",
    "ville": "MARANS",
    "date": "",
    "puissance": "3kwc",
    "lat": 46.3101338,
    "lon": -0.9940538,
    "type": "PV"
  },
  {
    "nom": "CHAGNOLEAU JEAN-LOUIS",
    "ville": "SAINT SAUVANT",
    "date": "Juillet 2024",
    "puissance": "3kwc",
    "lat": 45.7389374,
    "lon": -0.504218,
    "type": "PV"
  },
  {
    "nom": "CHAMARD PASCAL",
    "ville": "MARSAIS",
    "date": "",
    "puissance": "3kwc",
    "lat": 46.1247121,
    "lon": -0.6006905,
    "type": "PV"
  },
  {
    "nom": "CHAUMETTE VINCENT 2k",
    "ville": "SAINT PIERRE D'OLÉRON",
    "date": "Mai 2024",
    "puissance": "2kwc",
    "lat": 45.9437695,
    "lon": -1.3061227,
    "type": "PV"
  },
  {
    "nom": "CHAUMETTE VINCENT 5k",
    "ville": "SAINT PIERRE D'OLÉRON",
    "date": "Mars 2025",
    "puissance": "5kwc",
    "lat": 45.9437695,
    "lon": -1.3061227,
    "type": "PV"
  },
  {
    "nom": "CHERADE CYRIL",
    "ville": "SAINT SEVER DE SAINTONGE",
    "date": "Mai 2024",
    "puissance": "3kwc",
    "lat": 45.6940704,
    "lon": -0.5076702,
    "type": "PV"
  },
  {
    "nom": "CHRISTY BRUNO",
    "ville": "CLAVETTE",
    "date": "Février 2024",
    "puissance": "3kwc",
    "lat": 46.1409843,
    "lon": -1.0273587,
    "type": "PV"
  },
  {
    "nom": "CLOUET CHRISTOPHE",
    "ville": "SAINT ROGATIEN",
    "date": "Mars 2024",
    "puissance": "3kwc",
    "lat": 46.1498022,
    "lon": -1.0686838,
    "type": "PV"
  },
  {
    "nom": "COAT THOMAS",
    "ville": "LES SABLES D'OLONNE",
    "date": "Septembre 2024",
    "puissance": "3kwc",
    "lat": 46.4990505,
    "lon": -1.7767859,
    "type": "PV"
  },
  {
    "nom": "CUBERO FLORIAN",
    "ville": "CHATELAILLON",
    "date": "Juillet 2024",
    "puissance": "7,5kwc",
    "lat": 46.0738633,
    "lon": -1.0903991,
    "type": "PV"
  },
  {
    "nom": "DIAS PEREIRA",
    "ville": "SALLES SUR MER",
    "date": "Mai 2024",
    "puissance": "3kwc",
    "lat": 46.1049709,
    "lon": -1.0571737,
    "type": "PV"
  },
  {
    "nom": "DOARE JEAN-PIERRE",
    "ville": "DOMPIERRE SUR MER",
    "date": "",
    "puissance": "3kwc",
    "lat": 46.186001,
    "lon": -1.0656405,
    "type": "PV"
  },
  {
    "nom": "DRAPEAU STÉPHANE",
    "ville": "CHAMBON",
    "date": "",
    "puissance": "3kwc",
    "lat": 46.1257314,
    "lon": -0.8497848,
    "type": "PV"
  },
  {
    "nom": "DROUARD PATRICK",
    "ville": "BREUIL MAGNÉ",
    "date": "Septembre 2024",
    "puissance": "6kwc",
    "lat": 45.9839283,
    "lon": -0.9584142,
    "type": "PV"
  },
  {
    "nom": "DROUET LAURENT",
    "ville": "CROIX CHAPEAU",
    "date": "",
    "puissance": "3kwc",
    "lat": 46.1098227,
    "lon": -1.0069804,
    "type": "PV"
  },
  {
    "nom": "FELISIAK EWA ",
    "ville": "SAINT SULPICE DE ROYAN",
    "date": "Octobre 2024",
    "puissance": "3kwc",
    "lat": 45.6727461,
    "lon": -1.0120694,
    "type": "PV"
  },
  {
    "nom": "FROMAGET AMELIE",
    "ville": "MOUILLERON ST GERMAIN",
    "date": "Février 2025",
    "puissance": "3kwc",
    "lat": 46.6688226,
    "lon": -0.847767,
    "type": "PV"
  },
  {
    "nom": "GARSAULT PATRICK",
    "ville": "PUILBOREAU",
    "date": "Avril 2024",
    "puissance": "6kwc",
    "lat": 46.1851302,
    "lon": -1.1177313,
    "type": "PV"
  },
  {
    "nom": "GAUTIER FABRICE",
    "ville": "AIGREFEUILLE D'AUNIS",
    "date": "",
    "puissance": "3kwc",
    "lat": 46.1163928,
    "lon": -0.9342868,
    "type": "PV"
  },
  {
    "nom": "GAUTRON JOEL",
    "ville": "PORT D'ENVAUX",
    "date": "",
    "puissance": "3kwc",
    "lat": 45.8353249,
    "lon": -0.679123,
    "type": "PV"
  },
  {
    "nom": "GENEAU CHRISTOPHE",
    "ville": "BREUIL MAGNÉ",
    "date": "",
    "puissance": "6kwc",
    "lat": 45.9839283,
    "lon": -0.9584142,
    "type": "PV"
  },
  {
    "nom": "GERBAUD LOGAN",
    "ville": "VÉRINES",
    "date": "Février 2025",
    "puissance": "6kwc",
    "lat": 46.1927243,
    "lon": -0.9645614,
    "type": "PV"
  },
  {
    "nom": "GIBERT FRANÇOIS",
    "ville": "PUYRAVAULT",
    "date": "Novembre 2023",
    "puissance": "6kwc",
    "lat": 46.1349889,
    "lon": -0.8141893,
    "type": "PV"
  },
  {
    "nom": "GOBERT CHRISTOPHE",
    "ville": "SAINT SULPICE DE ROYAN",
    "date": "Novembre 2024",
    "puissance": "7,5kwc",
    "lat": 45.6727461,
    "lon": -1.0120694,
    "type": "PV"
  },
  {
    "nom": "GRIFFON THOMAS",
    "ville": "PRAHECQ",
    "date": "Mai 2024",
    "puissance": "9kwc",
    "lat": 46.2595794,
    "lon": -0.3466615,
    "type": "PV"
  },
  {
    "nom": "GUILLET DOMINIQUE",
    "ville": "LA TRANCHE SUR MER",
    "date": "Décembre 2023",
    "puissance": "3kwc",
    "lat": 46.3440097,
    "lon": -1.4380541,
    "type": "PV"
  },
  {
    "nom": "GUITTARD LISA",
    "ville": "MARANS",
    "date": "Novembre 2024",
    "puissance": "6kwc",
    "lat": 46.3101338,
    "lon": -0.9940538,
    "type": "PV"
  },
  {
    "nom": "HAUDOIN CHARLES",
    "ville": "NIEUL SUR MER",
    "date": "Novembre 2024",
    "puissance": "3kwc",
    "lat": 46.2069355,
    "lon": -1.1639199,
    "type": "PV"
  },
  {
    "nom": "JODHUN SANJAY",
    "ville": "SAINT SYMPHORIEN",
    "date": "Septembre 2024",
    "puissance": "7,5kwc",
    "lat": 45.9419,
    "lon": -0.9572,
    "type": "PV"
  },
  {
    "nom": "LAFOLIE DANIEL",
    "ville": "SAINT HILAIRE DES LOGES",
    "date": "Avril 2024",
    "puissance": "4,5kwc",
    "lat": 46.4706005,
    "lon": -0.6656039,
    "type": "PV"
  },
  {
    "nom": "LARGE CHRISTOPHE",
    "ville": "ROCHEFORT",
    "date": "Février 2024",
    "puissance": "3kwc",
    "lat": 45.9366592,
    "lon": -0.9616399,
    "type": "PV"
  },
  {
    "nom": "LECERF MICHEL",
    "ville": "LANDEVIEILLE",
    "date": "Mai 2024",
    "puissance": "3kwc",
    "lat": 46.6416667,
    "lon": -1.805,
    "type": "PV"
  },
  {
    "nom": "LIGEN MATHILDE",
    "ville": "LA ROCHELLE",
    "date": "Octobre 2024",
    "puissance": "3kwc",
    "lat": 46.159732,
    "lon": -1.1515951,
    "type": "PV"
  },
  {
    "nom": "LISSENKO DANIEL",
    "ville": "LUÇON",
    "date": "",
    "puissance": "3kwc",
    "lat": 46.4555953,
    "lon": -1.1645595,
    "type": "PV"
  },
  {
    "nom": "LOUCHET DIANE",
    "ville": "MARENNES",
    "date": "Mars 2025",
    "puissance": "3kwc",
    "lat": 45.8224965,
    "lon": -1.112795,
    "type": "PV"
  },
  {
    "nom": "MADIOT CLAUDE",
    "ville": "CHAMBON",
    "date": "Juillet 2024",
    "puissance": "3kwc",
    "lat": 46.1257314,
    "lon": -0.8497848,
    "type": "PV"
  },
  {
    "nom": "MAURON SEBASTIEN",
    "ville": "LONGEVILLE SUR MER",
    "date": "Août 2024",
    "puissance": "3kwc",
    "lat": 46.4251677,
    "lon": -1.488347,
    "type": "PV"
  },
  {
    "nom": "MEDJAKE EMMANUEL",
    "ville": "LA FERRIERE",
    "date": "Décembre 2024",
    "puissance": "6kwc",
    "lat": 46.7203,
    "lon": -1.6983,
    "type": "PV"
  },
  {
    "nom": "MENOT MARC",
    "ville": "SAINT DENIS D'OLERON",
    "date": "Janvier 2025",
    "puissance": "3kwc",
    "lat": 46.033611,
    "lon": -1.3775,
    "type": "PV"
  },
  {
    "nom": "METAYER JEAN YVES",
    "ville": "ECHEBRUNE",
    "date": "Avril 2024",
    "puissance": "9kwc",
    "lat": 45.578869,
    "lon": -0.4466007,
    "type": "PV"
  },
  {
    "nom": "METAYER RÉGIS",
    "ville": "SAINTE SOULLE",
    "date": "Janvier 2024",
    "puissance": "3kwc",
    "lat": 46.188253,
    "lon": -1.0157986,
    "type": "PV"
  },
  {
    "nom": "MICHAUD CYRILLE",
    "ville": "CHATEAU D'OLONNE",
    "date": "Février 2024",
    "puissance": "7,5kwc",
    "lat": 46.505,
    "lon": -1.7361111,
    "type": "PV"
  },
  {
    "nom": "MONNIER REMY",
    "ville": "AIZENAY",
    "date": "Mai 2024",
    "puissance": "3kwc",
    "lat": 46.7391797,
    "lon": -1.6084351,
    "type": "PV"
  },
  {
    "nom": "NAUD DIDIER",
    "ville": "SAINT JEAN DE LIVERSAY",
    "date": "",
    "puissance": "3kwc",
    "lat": 46.2709561,
    "lon": -0.8728577,
    "type": "PV"
  },
  {
    "nom": "PAUCHARD ERIC 2",
    "ville": "LE THOU",
    "date": "Octobre 2025",
    "puissance": "3kwc",
    "lat": 46.0839685,
    "lon": -0.9172451,
    "type": "PV"
  },
  {
    "nom": "PAUCHARD ERIC",
    "ville": "LE THOU",
    "date": "Novembre 2024",
    "puissance": "3kwc",
    "lat": 46.0839685,
    "lon": -0.9172451,
    "type": "PV"
  },
  {
    "nom": "PIJOLLET NELLY",
    "ville": "THEZAC",
    "date": "Mai 2025",
    "puissance": "45kwc",
    "lat": 45.6725217,
    "lon": -0.7901874,
    "type": "PV"
  },
  {
    "nom": "PHILLIPS COLLIN",
    "ville": "MELLERAN",
    "date": "Mars 2024",
    "puissance": "6kwc",
    "lat": 46.1314087,
    "lon": 0.0024052,
    "type": "PV"
  },
  {
    "nom": "PREVOST MICHEL",
    "ville": "SURGÈRES",
    "date": "Octobre 2024",
    "puissance": "3kwc",
    "lat": 46.1052715,
    "lon": -0.7511152,
    "type": "PV"
  },
  {
    "nom": "ROGER FRANÇOIS",
    "ville": "SAINT GILLES CROIX DE VIE",
    "date": "Octobre 2024",
    "puissance": "7kwc",
    "lat": 46.692985,
    "lon": -1.9254545,
    "type": "PV"
  },
  {
    "nom": "ROUSSEAU THIERRY",
    "ville": "LE LANGON",
    "date": "Février 2025",
    "puissance": "6kwc",
    "lat": 46.4386111,
    "lon": -0.9486111,
    "type": "PV"
  },
  {
    "nom": "SANNA NATHALIE",
    "ville": "CLESSÉ",
    "date": "Janvier 2025",
    "puissance": "8kwc",
    "lat": 46.4167,
    "lon": -0.2667,
    "type": "PV"
  },
  {
    "nom": "SANS YOHANN",
    "ville": "LA FLOTTE EN RÉ",
    "date": "Mai 2024",
    "puissance": "9kwc",
    "lat": 46.1886242,
    "lon": -1.325123,
    "type": "PV"
  },
  {
    "nom": "SAUTJEAU HUGUES",
    "ville": "BORS",
    "date": "Janvier 2025",
    "puissance": "6kwc",
    "lat": 45.3278205,
    "lon": -0.1933698,
    "type": "PV"
  },
  {
    "nom": "SCHALLER JEAN-LUC",
    "ville": "LA CLISSE",
    "date": "Septembre 2024",
    "puissance": "6kwc",
    "lat": 45.7349044,
    "lon": -0.7624343,
    "type": "PV"
  },
  {
    "nom": "SOULET HUGUES",
    "ville": "MAGNÉ",
    "date": "Juin 2024",
    "puissance": "6kwc",
    "lat": 46.3148541,
    "lon": -0.5431161,
    "type": "PV"
  },
  {
    "nom": "STIMARIDIS PHILIPPE",
    "ville": "CRAZANNES",
    "date": "Mars 2025",
    "puissance": "7,5kwc",
    "lat": 45.8480885,
    "lon": -0.7044416,
    "type": "PV"
  },
  {
    "nom": "SUC-BLANCHARD",
    "ville": "LE THOU",
    "date": "Mai 2024",
    "puissance": "6kwc",
    "lat": 46.0839685,
    "lon": -0.9172451,
    "type": "PV"
  },
  {
    "nom": "SUIRE SOPHIE",
    "ville": "VILLEDOUX",
    "date": "Mai 2024",
    "puissance": "6kwc",
    "lat": 46.241153,
    "lon": -1.0682289,
    "type": "PV"
  },
  {
    "nom": "THIERRY BRUNO",
    "ville": "VÉRINES",
    "date": "Mai 2024",
    "puissance": "6kwc",
    "lat": 46.1927243,
    "lon": -0.9645614,
    "type": "PV"
  },
  {
    "nom": "TRICHET JEAN-MICHEL",
    "ville": " MOUTIERS LES MAUXFAITS",
    "date": "Mars 2024",
    "puissance": "3kwc",
    "lat": 46.4926693,
    "lon": -1.4247824,
    "type": "PV"
  },
  {
    "nom": "VIOLLIER NICOLAS",
    "ville": "VENANSAULT",
    "date": "Mars 2025",
    "puissance": "1,5kwc",
    "lat": 46.6858331,
    "lon": -1.5113138,
    "type": "PV"
  },
  {
    "nom": "VINCENT ALAIN",
    "ville": "SAINT SATURNIN DU BOIS",
    "date": "",
    "puissance": "3kwc",
    "lat": 46.1388115,
    "lon": -0.6716992,
    "type": "PV"
  },
  {
    "nom": "M François Badeau",
    "ville": "BELLEVILLE",
    "date": "Décembre 2024",
    "lat": 46.2,
    "lon": -0.95,
    "type": "Bornes"
  },
  {
    "nom": "M François Badeau",
    "ville": "BELLEVILLE",
    "date": "Décembre 2024",
    "lat": 46.2,
    "lon": -0.95,
    "type": "Electricite"
  },
  {
    "nom": "M Christophe Geneau",
    "ville": "BREUIL-MAGNÉ",
    "date": "Janvier 2025",
    "lat": 45.9839283,
    "lon": -0.9584142,
    "type": "Electricite"
  },
  {
    "nom": "M Mathlide",
    "ville": "LA ROCHELLE",
    "date": "Février 2025",
    "lat": 46.159732,
    "lon": -1.1515951,
    "type": "Bornes"
  },
  {
    "nom": "M Mathéo Bouhier",
    "ville": "LA FOYE-MONJAULT",
    "date": "Février 2025",
    "lat": 46.1863655,
    "lon": -0.5395676,
    "type": "PAC"
  },
  {
    "nom": "M Bruno Thierry",
    "ville": "VÉRINES",
    "date": "Février 2025",
    "lat": 46.1927243,
    "lon": -0.9645614,
    "type": "Bornes"
  },
  {
    "nom": "M Nicolas Bart",
    "ville": "LA ROCHELLE",
    "date": "Mars 2025",
    "lat": 46.159732,
    "lon": -1.1515951,
    "type": "PAC"
  },
  {
    "nom": "M\nMise",
    "ville": "VÉRINES",
    "date": "Février 2025",
    "lat": 46.1927243,
    "lon": -0.9645614,
    "type": "VMC"
  },
  {
    "nom": "Mme Catherine",
    "ville": "LE LANGON",
    "date": "Mars 2025",
    "lat": 46.4386111,
    "lon": -0.9486111,
    "type": "Electricite"
  },
  {
    "nom": "M Macodou Ndiaye",
    "ville": "MOUILLERON",
    "date": "Avril 2025",
    "lat": 46.68,
    "lon": -0.83,
    "type": "Electricite"
  },
  {
    "nom": "M Mr Et",
    "ville": "CHÂTELAILLON-PLAGE",
    "date": "Juin 2025",
    "lat": 46.0738633,
    "lon": -1.0903991,
    "type": "Electricite"
  },
  {
    "nom": "M Antony Taveneau",
    "ville": "TAUGON",
    "date": "Juin 2025",
    "lat": 46.309113,
    "lon": -0.8336324,
    "type": "Electricite"
  },
  {
    "nom": "M Laurent Braquehais",
    "ville": "LA ROCHELLE",
    "date": "Juillet 2025",
    "lat": 46.159732,
    "lon": -1.1515951,
    "type": "PAC"
  },
  {
    "nom": "M Antony Taveneau",
    "ville": "TAUGON",
    "date": "Septembre 2025",
    "lat": 46.309113,
    "lon": -0.8336324,
    "type": "PAC"
  },
  {
    "nom": "M Randy",
    "ville": "BOURGNEUF",
    "date": "Septembre 2025",
    "lat": 46.1665781,
    "lon": -1.0230793,
    "type": "PAC"
  },
  {
    "nom": "M Dylan Tourneur",
    "ville": "LA ROCHELLE",
    "date": "Octobre 2025",
    "lat": 46.159732,
    "lon": -1.1515951,
    "type": "PAC"
  },
  {
    "nom": "M Christian Donnet",
    "ville": "LA ROCHELLE",
    "date": "Novembre 2025",
    "lat": 46.159732,
    "lon": -1.1515951,
    "type": "Electricite"
  },
  {
    "nom": "Mme & M Bayle",
    "ville": "SAINT-JEAN-DE-LIVERSAY",
    "date": "Juillet 2024",
    "lat": 46.1416,
    "lon": -0.8236,
    "type": "Batteries"
  }
]