[
  {
    "nom": "ANSELME PHILIPPE",
    "ville": "TALMONT SAINT HILAIRE",
    "date": "Février 2024",
    "puissance": "7,5kwc",
    "lat": 46.4775007,
    "lon": -1.6280266,
    "type": "PV"
  },
  {
    "nom": "BADEAU FRANÇOIS",
    "ville": "BELLEVILLE SUR VIE",
    "date": "Mars 2025",
    "puissance": "6kwc",
    "lat": 46.7842036,
    "lon": -1.4300397,
    "type": "PV"
  },
  {
    "nom": "BARROIS CHRISTIAN",
    "ville": "FOURAS",
    "date": "Juin 2024",
    "puissance": "6kwc",
    "lat": 45.983981,
    "lon": -1.090915,
    "type": "PV"
  },
  {
    "nom": "BARTOUX BRIGITTE",
    "ville": "DOMPIERRE SUR MER",
    "date": "Novembre 2024",
    "puissance": "4kwc",
    "lat": 46.186001,
    "lon": -1.0656405,
    "type": "PV"
  },
  {
    "nom": "BEAUPIN CÉDRIC",
    "ville": "MARANS",
    "date": "Août 2024",
    "puissance": "7kwc",
    "lat": 46.3101338,
    "lon": -0.9940538,
    "type": "PV"
  },
  {
    "nom": "BELMONTET BRUNO",
    "ville": "CHAILLE LES MARAIS",
    "date": "Juin 2025",
    "puissance": "3kwc",
    "lat": 46.398877,
    "lon": -1.0251604,
    "type": "PV"
  },
  {
    "nom": "BERNARD FREDERIC",
    "ville": "NIEUL SUR MER",
    "date": "Janvier 2025",
    "puissance": "6kwc",
    "lat": 46.2069355,
    "lon": -1.1639199,
    "type": "PV"
  },
  {
    "nom": "BOUILLAUD MIKAEL",
    "ville": "L'ILE D'ELLE",
    "date": "Février 2025",
    "puissance": "6kwc",
    "lat": 46.3316667,
    "lon": -0.9480556,
    "type": "PV"
  },
  {
    "nom": "BOULLIC LAURENT",
    "ville": "NIORT",
    "date": "Mars 2024",
    "puissance": "3kwc",
    "lat": 46.3239233,
    "lon": -0.4646064,
    "type": "PV"
  },
  {
    "nom": "BOURDET CLAUDE",
    "ville": " SAINT HILAIRE DES LOGES",
    "date": "Juin 2024",
    "puissance": "3kwc",
    "lat": 46.4706005,
    "lon": -0.6656039,
    "type": "PV"
  },
  {
    "nom": "BUSO LUC",
    "ville": "LA FERRIERE",
    "date": "Mai 2024",
    "puissance": "3kwc",
    "lat": 46.7203,
    "lon": -1.6983,
    "type": "PV"
  },
  {
    "nom": "CAMILLE BRUNO",
    "ville": "MARANS",
    "date": "",
    "puissance": "3kwc",
    "lat": 46.3101338,
    "lon": -0.9940538,
    "type": "PV"
  },
  {
    "nom": "CHAGNOLEAU JEAN-LOUIS",
    "ville": "SAINT SAUVANT",
    "date": "Juillet 2024",
    "puissance": "3kwc",
    "lat": 45.7389374,
    "lon": -0.504218,
    "type": "PV"
  },
  {
    "nom": "CHAMARD PASCAL",
    "ville": "MARSAIS",
    "date": "",
    "puissance": "3kwc",
    "lat": 46.1247121,
    "lon": -0.6006905,
    "type": "PV"
  },
  {
    "nom": "CHAUMETTE VINCENT 2k",
    "ville": "SAINT PIERRE D'OLÉRON",
    "date": "Mai 2024",
    "puissance": "2kwc",
    "lat": 45.9437695,
    "lon": -1.3061227,
    "type": "PV"
  },
  {
    "nom": "CHAUMETTE VINCENT 5k",
    "ville": "SAINT PIERRE D'OLÉRON",
    "date": "Mars 2025",
    "puissance": "5kwc",
    "lat": 45.9437695,
    "lon": -1.3061227,
    "type": "PV"
  },
  {
    "nom": "CHERADE CYRIL",
    "ville": "SAINT SEVER DE SAINTONGE",
    "date": "Mai 2024",
    "puissance": "3kwc",
    "lat": 45.6940704,
    "lon": -0.5076702,
    "type": "PV"
  },
  {
    "nom": "CHRISTY BRUNO",
    "ville": "CLAVETTE",
    "date": "Février 2024",
    "puissance": "3kwc",
    "lat": 46.1409843,
    "lon": -1.0273587,
    "type": "PV"
  },
  {
    "nom": "CLOUET CHRISTOPHE",
    "ville": "SAINT ROGATIEN",
    "date": "Mars 2024",
    "puissance": "3kwc",
    "lat": 46.1498022,
    "lon": -1.0686838,
    "type": "PV"
  },
  {
    "nom": "COAT THOMAS",
    "ville": "LES SABLES D'OLONNE",
    "date": "Septembre 2024",
    "puissance": "3kwc",
    "lat": 46.4990505,
    "lon": -1.7767859,
    "type": "PV"
  },
  {
    "nom": "CUBERO FLORIAN",
    "ville": "CHATELAILLON",
    "date": "Juillet 2024",
    "puissance": "7,5kwc",
    "lat": 46.0738633,
    "lon": -1.0903991,
    "type": "PV"
  },
  {
    "nom": "DIAS PEREIRA",
    "ville": "SALLES SUR MER",
    "date": "Mai 2024",
    "puissance": "3kwc",
    "lat": 46.1049709,
    "lon": -1.0571737,
    "type": "PV"
  },
  {
    "nom": "DOARE JEAN-PIERRE",
    "ville": "DOMPIERRE SUR MER",
    "date": "",
    "puissance": "3kwc",
    "lat": 46.186001,
    "lon": -1.0656405,
    "type": "PV"
  },
  {
    "nom": "DRAPEAU STÉPHANE",
    "ville": "CHAMBON",
    "date": "",
    "puissance": "3kwc",
    "lat": 46.1257314,
    "lon": -0.8497848,
    "type": "PV"
  },
  {
    "nom": "DROUARD PATRICK",
    "ville": "BREUIL MAGNÉ",
    "date": "Septembre 2024",
    "puissance": "6kwc",
    "lat": 45.9839283,
    "lon": -0.9584142,
    "type": "PV"
  },
  {
    "nom": "DROUET LAURENT",
    "ville": "CROIX CHAPEAU",
    "date": "",
    "puissance": "3kwc",
    "lat": 46.1098227,
    "lon": -1.0069804,
    "type": "PV"
  },
  {
    "nom": "FELISIAK EWA ",
    "ville": "SAINT SULPICE DE ROYAN",
    "date": "Octobre 2024",
    "puissance": "3kwc",
    "lat": 45.6727461,
    "lon": -1.0120694,
    "type": "PV"
  },
  {
    "nom": "FROMAGET AMELIE",
    "ville": "MOUILLERON ST GERMAIN",
    "date": "Février 2025",
    "puissance": "3kwc",
    "lat": 46.6688226,
    "lon": -0.847767,
    "type": "PV"
  },
  {
    "nom": "GARSAULT PATRICK",
    "ville": "PUILBOREAU",
    "date": "Avril 2024",
    "puissance": "6kwc",
    "lat": 46.1851302,
    "lon": -1.1177313,
    "type": "PV"
  },
  {
    "nom": "GAUTIER FABRICE",
    "ville": "AIGREFEUILLE D'AUNIS",
    "date": "",
    "puissance": "3kwc",
    "lat": 46.1163928,
    "lon": -0.9342868,
    "type": "PV"
  },
  {
    "nom": "GAUTRON JOEL",
    "ville": "PORT D'ENVAUX",
    "date": "",
    "puissance": "3kwc",
    "lat": 45.8353249,
    "lon": -0.679123,
    "type": "PV"
  },
  {
    "nom": "GENEAU CHRISTOPHE",
    "ville": "BREUIL MAGNÉ",
    "date": "",
    "puissance": "6kwc",
    "lat": 45.9839283,
    "lon": -0.9584142,
    "type": "PV"
  },
  {
    "nom": "GERBAUD LOGAN",
    "ville": "VÉRINES",
    "date": "Février 2025",
    "puissance": "6kwc",
    "lat": 46.1927243,
    "lon": -0.9645614,
    "type": "PV"
  },
  {
    "nom": "GIBERT FRANÇOIS",
    "ville": "PUYRAVAULT",
    "date": "Novembre 2023",
    "puissance": "6kwc",
    "lat": 46.1349889,
    "lon": -0.8141893,
    "type": "PV"
  },
  {
    "nom": "GOBERT CHRISTOPHE",
    "ville": "SAINT SULPICE DE ROYAN",
    "date": "Novembre 2024",
    "puissance": "7,5kwc",
    "lat": 45.6727461,
    "lon": -1.0120694,
    "type": "PV"
  },
  {
    "nom": "GRIFFON THOMAS",
    "ville": "PRAHECQ",
    "date": "Mai 2024",
    "puissance": "9kwc",
    "lat": 46.2595794,
    "lon": -0.3466615,
    "type": "PV"
  },
  {
    "nom": "GUILLET DOMINIQUE",
    "ville": "LA TRANCHE SUR MER",
    "date": "Décembre 2023",
    "puissance": "3kwc",
    "lat": 46.34302,
    "lon": -1.424009,
    "type": "PV"
  },
  {
    "nom": "GUITTARD LISA",
    "ville": "MARANS",
    "date": "Novembre 2024",
    "puissance": "6kwc",
    "lat": 46.3101338,
    "lon": -0.9940538,
    "type": "PV"
  },
  {
    "nom": "HAUDOIN CHARLES",
    "ville": "NIEUL SUR MER",
    "date": "Novembre 2024",
    "puissance": "3kwc",
    "lat": 46.2069355,
    "lon": -1.1639199,
    "type": "PV"
  },
  {
    "nom": "JODHUN SANJAY",
    "ville": "SAINT SYMPHORIEN",
    "date": "Septembre 2024",
    "puissance": "7,5kwc",
    "lat": 45.9419,
    "lon": -0.9572,
    "type": "PV"
  },
  {
    "nom": "LAFOLIE DANIEL",
    "ville": "SAINT HILAIRE DES LOGES",
    "date": "Avril 2024",
    "puissance": "4,5kwc",
    "lat": 46.4706005,
    "lon": -0.6656039,
    "type": "PV"
  },
  {
    "nom": "LARGE CHRISTOPHE",
    "ville": "ROCHEFORT",
    "date": "Février 2024",
    "puissance": "3kwc",
    "lat": 45.9366592,
    "lon": -0.9616399,
    "type": "PV"
  },
  {
    "nom": "LECERF MICHEL",
    "ville": "LANDEVIEILLE",
    "date": "Mai 2024",
    "puissance": "3kwc",
    "lat": 46.6416667,
    "lon": -1.755,
    "type": "PV"
  },
  {
    "nom": "LISSENKO DANIEL",
    "ville": "LUÇON",
    "date": "",
    "puissance": "3kwc",
    "lat": 46.4555953,
    "lon": -1.1645595,
    "type": "PV"
  },
  {
    "nom": "LOUCHET DIANE",
    "ville": "MARENNES",
    "date": "Mars 2025",
    "puissance": "3kwc",
    "lat": 45.818871,
    "lon": -1.101703,
    "type": "PV"
  },
  {
    "nom": "MADIOT CLAUDE",
    "ville": "CHAMBON",
    "date": "Juillet 2024",
    "puissance": "3kwc",
    "lat": 46.1257314,
    "lon": -0.8497848,
    "type": "PV"
  },
  {
    "nom": "MAURON SEBASTIEN",
    "ville": "LONGEVILLE SUR MER",
    "date": "Août 2024",
    "puissance": "3kwc",
    "lat": 46.4251677,
    "lon": -1.488347,
    "type": "PV"
  },
  {
    "nom": "MEDJAKE EMMANUEL",
    "ville": "LA FERRIERE",
    "date": "Décembre 2024",
    "puissance": "6kwc",
    "lat": 46.7203,
    "lon": -1.6983,
    "type": "PV"
  },
  {
    "nom": "MENOT MARC",
    "ville": "SAINT DENIS D'OLERON",
    "date": "Janvier 2025",
    "puissance": "3kwc",
    "lat": 46.033611,
    "lon": -1.3275,
    "type": "PV"
  },
  {
    "nom": "METAYER JEAN YVES",
    "ville": "ECHEBRUNE",
    "date": "Avril 2024",
    "puissance": "9kwc",
    "lat": 45.578869,
    "lon": -0.4466007,
    "type": "PV"
  },
  {
    "nom": "METAYER RÉGIS",
    "ville": "SAINTE SOULLE",
    "date": "Janvier 2024",
    "puissance": "3kwc",
    "lat": 46.188253,
    "lon": -1.0157986,
    "type": "PV"
  },
  {
    "nom": "MICHAUD CYRILLE",
    "ville": "CHATEAU D'OLONNE",
    "date": "Février 2024",
    "puissance": "7,5kwc",
    "lat": 46.505,
    "lon": -1.7361111,
    "type": "PV"
  },
  {
    "nom": "MONNIER REMY",
    "ville": "AIZENAY",
    "date": "Mai 2024",
    "puissance": "3kwc",
    "lat": 46.7391797,
    "lon": -1.6084351,
    "type": "PV"
  },
  {
    "nom": "NAUD DIDIER",
    "ville": "SAINT JEAN DE LIVERSAY",
    "date": "",
    "puissance": "3kwc",
    "lat": 46.2709561,
    "lon": -0.8728577,
    "type": "PV"
  },
  {
    "nom": "PAUCHARD ERIC 2",
    "ville": "LE THOU",
    "date": "Octobre 2025",
    "puissance": "3kwc",
    "lat": 46.0839685,
    "lon": -0.9172451,
    "type": "PV"
  },
  {
    "nom": "PAUCHARD ERIC",
    "ville": "LE THOU",
    "date": "Novembre 2024",
    "puissance": "3kwc",
    "lat": 46.0839685,
    "lon": -0.9172451,
    "type": "PV"
  },
  {
    "nom": "PIJOLLET NELLY",
    "ville": "THEZAC",
    "date": "Mai 2025",
    "puissance": "45kwc",
    "lat": 45.6725217,
    "lon": -0.7901874,
    "type": "PV"
  },
  {
    "nom": "PHILLIPS COLLIN",
    "ville": "MELLERAN",
    "date": "Mars 2024",
    "puissance": "6kwc",
    "lat": 46.1314087,
    "lon": 0.0024052,
    "type": "PV"
  },
  {
    "nom": "PREVOST MICHEL",
    "ville": "SURGÈRES",
    "date": "Octobre 2024",
    "puissance": "3kwc",
    "lat": 46.1052715,
    "lon": -0.7511152,
    "type": "PV"
  },
  {
    "nom": "ROGER FRANÇOIS",
    "ville": "SAINT GILLES CROIX DE VIE",
    "date": "Octobre 2024",
    "puissance": "7kwc",
    "lat": 46.699473,
    "lon": -1.928243,
    "type": "PV"
  },
  {
    "nom": "ROUSSEAU THIERRY",
    "ville": "LE LANGON",
    "date": "Février 2025",
    "puissance": "6kwc",
    "lat": 46.4386111,
    "lon": -0.9486111,
    "type": "PV"
  },
  {
    "nom": "SANNA NATHALIE",
    "ville": "CLESSÉ",
    "date": "Janvier 2025",
    "puissance": "8kwc",
    "lat": 46.4167,
    "lon": -0.2667,
    "type": "PV"
  },
  {
    "nom": "SANS YOHANN",
    "ville": "LA FLOTTE EN RÉ",
    "date": "Mai 2024",
    "puissance": "9kwc",
    "lat": 46.1886242,
    "lon": -1.325123,
    "type": "PV"
  },
  {
    "nom": "SAUTJEAU HUGUES",
    "ville": "BORS",
    "date": "Janvier 2025",
    "puissance": "6kwc",
    "lat": 45.3278205,
    "lon": -0.1933698,
    "type": "PV"
  },
  {
    "nom": "SCHALLER JEAN-LUC",
    "ville": "LA CLISSE",
    "date": "Septembre 2024",
    "puissance": "6kwc",
    "lat": 45.7349044,
    "lon": -0.7624343,
    "type": "PV"
  },
  {
    "nom": "SOULET HUGUES",
    "ville": "MAGNÉ",
    "date": "Juin 2024",
    "puissance": "6kwc",
    "lat": 46.3148541,
    "lon": -0.5431161,
    "type": "PV"
  },
  {
    "nom": "STIMARIDIS PHILIPPE",
    "ville": "CRAZANNES",
    "date": "Mars 2025",
    "puissance": "7,5kwc",
    "lat": 45.8480885,
    "lon": -0.7044416,
    "type": "PV"
  },
  {
    "nom": "SUC-BLANCHARD",
    "ville": "LE THOU",
    "date": "Mai 2024",
    "puissance": "6kwc",
    "lat": 46.0839685,
    "lon": -0.9172451,
    "type": "PV"
  },
  {
    "nom": "SUIRE SOPHIE",
    "ville": "VILLEDOUX",
    "date": "Mai 2024",
    "puissance": "6kwc",
    "lat": 46.240834,
    "lon": -1.048995,
    "type": "PV"
  },
  {
    "nom": "THIERRY BRUNO",
    "ville": "VÉRINES",
    "date": "Mai 2024",
    "puissance": "6kwc",
    "lat": 46.1927243,
    "lon": -0.9645614,
    "type": "PV"
  },
  {
    "nom": "TRICHET JEAN-MICHEL",
    "ville": " MOUTIERS LES MAUXFAITS",
    "date": "Mars 2024",
    "puissance": "3kwc",
    "lat": 46.4926693,
    "lon": -1.4247824,
    "type": "PV"
  },
  {
    "nom": "VIOLLIER NICOLAS",
    "ville": "VENANSAULT",
    "date": "Mars 2025",
    "puissance": "1,5kwc",
    "lat": 46.6858331,
    "lon": -1.5113138,
    "type": "PV"
  },
  {
    "nom": "VINCENT ALAIN",
    "ville": "SAINT SATURNIN DU BOIS",
    "date": "",
    "puissance": "3kwc",
    "lat": 46.1388115,
    "lon": -0.6716992,
    "type": "PV"
  },
  {
    "nom": "M François Badeau",
    "ville": "BELLEVILLE",
    "date": "Décembre 2024",
    "lat": 46.2,
    "lon": -0.95,
    "type": "Bornes"
  },
  {
    "nom": "M François Badeau",
    "ville": "BELLEVILLE",
    "date": "Décembre 2024",
    "lat": 46.2,
    "lon": -0.95,
    "type": "Electricite"
  },
  {
    "nom": "M Christophe Geneau",
    "ville": "BREUIL-MAGNÉ",
    "date": "Janvier 2025",
    "lat": 45.9839283,
    "lon": -0.9584142,
    "type": "Electricite"
  },
  {
    "nom": "M Mathéo Bouhier",
    "ville": "LA FOYE-MONJAULT",
    "date": "Février 2025",
    "lat": 46.1863655,
    "lon": -0.5395676,
    "type": "PAC"
  },
  {
    "nom": "M Bruno Thierry",
    "ville": "VÉRINES",
    "date": "Février 2025",
    "lat": 46.1927243,
    "lon": -0.9645614,
    "type": "Bornes"
  },
  {
    "nom": "M\nMise",
    "ville": "VÉRINES",
    "date": "Février 2025",
    "lat": 46.1927243,
    "lon": -0.9645614,
    "type": "VMC"
  },
  {
    "nom": "Mme Catherine",
    "ville": "LE LANGON",
    "date": "Mars 2025",
    "lat": 46.4386111,
    "lon": -0.9486111,
    "type": "Electricite"
  },
  {
    "nom": "M Macodou Ndiaye",
    "ville": "MOUILLERON",
    "date": "Avril 2025",
    "lat": 46.68,
    "lon": -0.83,
    "type": "Electricite"
  },
  {
    "nom": "M Mr Et",
    "ville": "CHÂTELAILLON-PLAGE",
    "date": "Juin 2025",
    "lat": 46.0738633,
    "lon": -1.0903991,
    "type": "Electricite"
  },
  {
    "nom": "M Antony Taveneau",
    "ville": "TAUGON",
    "date": "Juin 2025",
    "lat": 46.309113,
    "lon": -0.8336324,
    "type": "Electricite"
  },
  {
    "nom": "M Antony Taveneau",
    "ville": "TAUGON",
    "date": "Septembre 2025",
    "lat": 46.309113,
    "lon": -0.8336324,
    "type": "PAC"
  },
  {
    "nom": "M Randy",
    "ville": "BOURGNEUF",
    "date": "Septembre 2025",
    "lat": 46.1665781,
    "lon": -1.0230793,
    "type": "PAC"
  },
  {
    "nom": "Mme & M Bayle",
    "ville": "SAINT-JEAN-DE-LIVERSAY",
    "date": "Juillet 2024",
    "lat": 46.1416,
    "lon": -0.8236,
    "type": "Batteries"
  },
  {
    "nom": "",
    "ville": "SAINTES",
    "date": "Mars 2025",
    "puissance": "6kwc",
    "lat": 45.73333,
    "lon": -0.638076,
    "type": "PV"
  },
  {
    "nom": "",
    "ville": "YVES",
    "date": "Avril 2023",
    "puissance": "6kwc",
    "lat": 46.02063,
    "lon": -1.000656,
    "type": "PV"
  },
  {
    "nom": "",
    "ville": "ESNANDES",
    "date": "Mai 2025",
    "puissance": "6kwc",
    "lat": 46.256133,
    "lon": -1.111151,
    "type": "PV"
  },
  {
    "nom": "",
    "ville": "MARSILLY",
    "date": "Décembre 2023",
    "puissance": "3kwc",
    "lat": 46.237555,
    "lon": -1.147522,
    "type": "PV"
  },
  {
    "nom": "",
    "ville": "ÉCHILLAIS",
    "date": "Août 2024",
    "puissance": "6kwc",
    "lat": 45.898427,
    "lon": -0.926386,
    "type": "PV"
  },
  {
    "nom": "",
    "ville": "L'HOUMEAU",
    "date": "Juin 2023",
    "puissance": "6kwc",
    "lat": 46.199302,
    "lon": -1.17552,
    "type": "PV"
  },
  {
    "nom": "",
    "ville": "PÉRIGNY",
    "date": "Mai 2025",
    "puissance": "9kwc",
    "lat": 46.147057,
    "lon": -1.084153,
    "type": "PV"
  },
  {
    "nom": "",
    "ville": "AIGREFEUILLE-D'AUNIS",
    "date": "Décembre 2023",
    "puissance": "9kwc",
    "lat": 46.105265,
    "lon": -0.92661,
    "type": "PV"
  },
  {
    "nom": "",
    "ville": "LUÇON",
    "date": "Juillet 2025",
    "puissance": "6kwc",
    "lat": 46.439031,
    "lon": -1.177427,
    "type": "PV"
  },
  {
    "nom": "",
    "ville": "SAINT-VIVIEN",
    "date": "Août 2024",
    "puissance": "12kwc",
    "lat": 46.137799,
    "lon": -1.069615,
    "type": "PV"
  },
  {
    "nom": "",
    "ville": "MARANS",
    "date": "Février 2023",
    "puissance": "6kwc",
    "lat": 46.310772,
    "lon": -0.994934,
    "type": "PV"
  },
  {
    "nom": "",
    "ville": "CHÂTELAILLON-PLAGE",
    "date": "Juillet 2024",
    "puissance": "9kwc",
    "lat": 46.058134,
    "lon": -1.094007,
    "type": "PV"
  },
  {
    "nom": "",
    "ville": "SAINTE-HERMINE",
    "date": "Février 2024",
    "puissance": "9kwc",
    "lat": 46.568909,
    "lon": -1.05854,
    "type": "PV"
  },
  {
    "nom": "",
    "ville": "SAINTES",
    "date": "Décembre 2024",
    "puissance": "3kwc",
    "lat": 45.732248,
    "lon": -0.625491,
    "type": "PV"
  },
  {
    "nom": "",
    "ville": "L'HOUMEAU",
    "date": "Janvier 2025",
    "puissance": "3kwc",
    "lat": 46.189652,
    "lon": -1.175909,
    "type": "PV"
  },
  {
    "nom": "",
    "ville": "ARS-EN-RÉ",
    "date": "Juin 2024",
    "puissance": "7,5kwc",
    "lat": 46.208061,
    "lon": -1.520526,
    "type": "PV"
  },
  {
    "nom": "",
    "ville": "COURÇON",
    "date": "Mars 2025",
    "puissance": "6kwc",
    "lat": 46.260282,
    "lon": -0.814402,
    "type": "PV"
  },
  {
    "nom": "",
    "ville": "L'HOUMEAU",
    "date": "Janvier 2023",
    "puissance": "6kwc",
    "lat": 46.189703,
    "lon": -1.175122,
    "type": "PV"
  },
  {
    "nom": "",
    "ville": "LE CHÂTEAU-D'OLÉRON",
    "date": "Janvier 2024",
    "puissance": "3kwc",
    "lat": 45.891623,
    "lon": -1.214663,
    "type": "PV"
  },
  {
    "nom": "",
    "ville": "COURÇON",
    "date": "Janvier 2023",
    "puissance": "3kwc",
    "lat": 46.234562,
    "lon": -0.822141,
    "type": "PV"
  },
  {
    "nom": "",
    "ville": "CIRÉ-D'AUNIS",
    "date": "Mai 2025",
    "puissance": "3kwc",
    "lat": 46.056357,
    "lon": -0.890538,
    "type": "PV"
  },
  {
    "nom": "",
    "ville": "MARSILLY",
    "date": "Juillet 2023",
    "puissance": "6kwc",
    "lat": 46.238638,
    "lon": -1.142274,
    "type": "PV"
  },
  {
    "nom": "",
    "ville": "MARSILLY",
    "date": "Mai 2024",
    "puissance": "3kwc",
    "lat": 46.235686,
    "lon": -1.140198,
    "type": "PV"
  },
  {
    "nom": "",
    "ville": "FONTCOUVERTE",
    "date": "Janvier 2026",
    "puissance": "9kwc",
    "lat": 45.711909,
    "lon": -0.490896,
    "type": "PV"
  },
  {
    "nom": "",
    "ville": "LONGÈVES",
    "date": "Février 2024",
    "puissance": "6kwc",
    "lat": 46.392612,
    "lon": -0.944918,
    "type": "PV"
  },
  {
    "nom": "",
    "ville": "THAIRÉ",
    "date": "Mai 2023",
    "puissance": "6kwc",
    "lat": 46.071092,
    "lon": -1.022338,
    "type": "PV"
  },
  {
    "nom": "",
    "ville": "FOURAS",
    "date": "Avril 2025",
    "puissance": "6kwc",
    "lat": 45.984371,
    "lon": -1.093309,
    "type": "PV"
  },
  {
    "nom": "",
    "ville": "AYTRÉ",
    "date": "Juillet 2025",
    "puissance": "9kwc",
    "lat": 46.142939,
    "lon": -1.081854,
    "type": "PV"
  },
  {
    "nom": "",
    "ville": "FONTCOUVERTE",
    "date": "Juin 2023",
    "puissance": "3kwc",
    "lat": 45.736013,
    "lon": -0.500942,
    "type": "PV"
  },
  {
    "nom": "",
    "ville": "PÉRIGNY",
    "date": "Février 2025",
    "puissance": "3kwc",
    "lat": 46.161162,
    "lon": -1.098665,
    "type": "PV"
  },
  {
    "nom": "",
    "ville": "FORGES",
    "date": "Mai 2023",
    "puissance": "7,5kwc",
    "lat": 46.020112,
    "lon": -0.839819,
    "type": "PV"
  },
  {
    "nom": "",
    "ville": "FOURAS",
    "date": "Mai 2025",
    "puissance": "9kwc",
    "lat": 45.988697,
    "lon": -1.089934,
    "type": "PV"
  },
  {
    "nom": "",
    "ville": "TONNAY-CHARENTE",
    "date": "Septembre 2025",
    "puissance": "6kwc",
    "lat": 45.934582,
    "lon": -0.881784,
    "type": "PV"
  },
  {
    "nom": "",
    "ville": "PÉRIGNY",
    "date": "Août 2024",
    "puissance": "7,5kwc",
    "lat": 46.154633,
    "lon": -1.08359,
    "type": "PV"
  },
  {
    "nom": "",
    "ville": "MARANS",
    "date": "Août 2025",
    "puissance": "6kwc",
    "lat": 46.31843,
    "lon": -0.97779,
    "type": "PV"
  },
  {
    "nom": "",
    "ville": "ESNANDES",
    "date": "Avril 2024",
    "puissance": "3kwc",
    "lat": 46.249232,
    "lon": -1.117121,
    "type": "PV"
  },
  {
    "nom": "",
    "ville": "SAINTE-HERMINE",
    "date": "Janvier 2026",
    "puissance": "7,5kwc",
    "lat": 46.556978,
    "lon": -1.055836,
    "type": "PV"
  },
  {
    "nom": "",
    "ville": "ROCHEFORT",
    "date": "Juillet 2025",
    "puissance": "3kwc",
    "lat": 45.95553,
    "lon": -0.945687,
    "type": "PV"
  },
  {
    "nom": "",
    "ville": "LOIRE-LES-MARAIS",
    "date": "Avril 2023",
    "puissance": "7,5kwc",
    "lat": 45.963629,
    "lon": -0.886671,
    "type": "PV"
  },
  {
    "nom": "",
    "ville": "AYTRÉ",
    "date": "Mars 2025",
    "puissance": "3kwc",
    "lat": 46.142598,
    "lon": -1.077809,
    "type": "PV"
  },
  {
    "nom": "",
    "ville": "AIGREFEUILLE-D'AUNIS",
    "date": "Juin 2024",
    "puissance": "6kwc",
    "lat": 46.121788,
    "lon": -0.924916,
    "type": "PV"
  },
  {
    "nom": "",
    "ville": "ANGOULINS",
    "date": "Janvier 2026",
    "puissance": "6kwc",
    "lat": 46.112714,
    "lon": -1.107435,
    "type": "PV"
  },
  {
    "nom": "",
    "ville": "TONNAY-CHARENTE",
    "date": "Mai 2024",
    "puissance": "9kwc",
    "lat": 45.951233,
    "lon": -0.885477,
    "type": "PV"
  },
  {
    "nom": "",
    "ville": "ROCHEFORT",
    "date": "Novembre 2023",
    "puissance": "9kwc",
    "lat": 45.937436,
    "lon": -0.95685,
    "type": "PV"
  },
  {
    "nom": "",
    "ville": "MARSILLY",
    "date": "Juin 2025",
    "puissance": "9kwc",
    "lat": 46.237763,
    "lon": -1.140787,
    "type": "PV"
  },
  {
    "nom": "",
    "ville": "COURÇON",
    "date": "Octobre 2023",
    "puissance": "6kwc",
    "lat": 46.2458,
    "lon": -0.80963,
    "type": "PV"
  },
  {
    "nom": "",
    "ville": "PÉRIGNY",
    "date": "Avril 2024",
    "puissance": "3kwc",
    "lat": 46.146971,
    "lon": -1.090066,
    "type": "PV"
  },
  {
    "nom": "",
    "ville": "CHAMBON",
    "date": "Octobre 2025",
    "puissance": "6kwc",
    "lat": 46.115792,
    "lon": -0.838513,
    "type": "PV"
  },
  {
    "nom": "",
    "ville": "ESNANDES",
    "date": "Novembre 2025",
    "puissance": "6kwc",
    "lat": 46.259107,
    "lon": -1.099216,
    "type": "PV"
  },
  {
    "nom": "",
    "ville": "SAINTES",
    "date": "Mars 2025",
    "puissance": "6kwc",
    "lat": 45.743452,
    "lon": -0.63032,
    "type": "PV"
  },
  {
    "nom": "",
    "ville": "L'HOUMEAU",
    "date": "Novembre 2024",
    "puissance": "9kwc",
    "lat": 46.193044,
    "lon": -1.170886,
    "type": "PV"
  },
  {
    "nom": "",
    "ville": "LUÇON",
    "date": "Mai 2025",
    "puissance": "6kwc",
    "lat": 46.450214,
    "lon": -1.170491,
    "type": "PV"
  },
  {
    "nom": "",
    "ville": "SAINT-PIERRE-D'OLÉRON",
    "date": "Mars 2025",
    "puissance": "3kwc",
    "lat": 45.954417,
    "lon": -1.315771,
    "type": "PV"
  },
  {
    "nom": "",
    "ville": "LE THOU",
    "date": "Février 2024",
    "puissance": "6kwc",
    "lat": 46.09545,
    "lon": -0.902607,
    "type": "PV"
  },
  {
    "nom": "",
    "ville": "LE THOU",
    "date": "Mars 2023",
    "puissance": "7,5kwc",
    "lat": 46.081008,
    "lon": -0.905464,
    "type": "PV"
  },
  {
    "nom": "",
    "ville": "SAINTES",
    "date": "Janvier 2025",
    "puissance": "7,5kwc",
    "lat": 45.734192,
    "lon": -0.643868,
    "type": "PV"
  },
  {
    "nom": "",
    "ville": "ANGOULINS",
    "date": "Avril 2025",
    "puissance": "6kwc",
    "lat": 46.099411,
    "lon": -1.107204,
    "type": "PV"
  },
  {
    "nom": "",
    "ville": "LA FLOTTE",
    "date": "Juillet 2024",
    "puissance": "6kwc",
    "lat": 46.194593,
    "lon": -1.318407,
    "type": "PV"
  },
  {
    "nom": "",
    "ville": "L'HOUMEAU",
    "date": "Janvier 2023",
    "puissance": "6kwc",
    "lat": 46.203574,
    "lon": -1.167717,
    "type": "PV"
  },
  {
    "nom": "",
    "ville": "MURON",
    "date": "Mai 2024",
    "puissance": "3kwc",
    "lat": 46.029691,
    "lon": -0.813094,
    "type": "PV"
  },
  {
    "nom": "",
    "ville": "CIRÉ-D'AUNIS",
    "date": "Novembre 2025",
    "puissance": "6kwc",
    "lat": 46.044577,
    "lon": -0.893426,
    "type": "PV"
  },
  {
    "nom": "",
    "ville": "LE CHÂTEAU-D'OLÉRON",
    "date": "Octobre 2024",
    "puissance": "7,5kwc",
    "lat": 45.884413,
    "lon": -1.197437,
    "type": "PV"
  },
  {
    "nom": "",
    "ville": "MARANS",
    "date": "Février 2023",
    "puissance": "7,5kwc",
    "lat": 46.306555,
    "lon": -0.990024,
    "type": "PV"
  },
  {
    "nom": "",
    "ville": "YVES",
    "date": "Septembre 2024",
    "puissance": "6kwc",
    "lat": 46.011201,
    "lon": -1.03738,
    "type": "PV"
  },
  {
    "nom": "",
    "ville": "SAINT-AGNANT",
    "date": "Octobre 2024",
    "puissance": "9kwc",
    "lat": 45.861037,
    "lon": -0.98892,
    "type": "PV"
  },
  {
    "nom": "",
    "ville": "CIRÉ-D'AUNIS",
    "date": "Décembre 2025",
    "puissance": "3kwc",
    "lat": 46.041944,
    "lon": -0.886485,
    "type": "PV"
  },
  {
    "nom": "",
    "ville": "LE CHÂTEAU-D'OLÉRON",
    "date": "Janvier 2024",
    "puissance": "6kwc",
    "lat": 45.871035,
    "lon": -1.198303,
    "type": "PV"
  },
  {
    "nom": "",
    "ville": "AYTRÉ",
    "date": "Novembre 2024",
    "puissance": "9kwc",
    "lat": 46.136864,
    "lon": -1.079937,
    "type": "PV"
  },
  {
    "nom": "",
    "ville": "LOIRE-LES-MARAIS",
    "date": "Septembre 2025",
    "puissance": "6kwc",
    "lat": 45.943968,
    "lon": -0.894037,
    "type": "PV"
  },
  {
    "nom": "",
    "ville": "ÉCHILLAIS",
    "date": "Mai 2025",
    "puissance": "9kwc",
    "lat": 45.915018,
    "lon": -0.925934,
    "type": "PV"
  },
  {
    "nom": "",
    "ville": "TONNAY-CHARENTE",
    "date": "Octobre 2025",
    "puissance": "6kwc",
    "lat": 45.961917,
    "lon": -0.887969,
    "type": "PV"
  },
  {
    "nom": "",
    "ville": "SURGÈRES",
    "date": "Mars 2025",
    "puissance": "3kwc",
    "lat": 46.098998,
    "lon": -0.755025,
    "type": "PV"
  },
  {
    "nom": "",
    "ville": "CHANIERS",
    "date": "Mai 2024",
    "puissance": "9kwc",
    "lat": 45.732874,
    "lon": -0.57129,
    "type": "PV"
  },
  {
    "nom": "",
    "ville": "SAINT-JEAN-D'ANGÉLY",
    "date": "Juin 2025",
    "puissance": "9kwc",
    "lat": 45.933492,
    "lon": -0.521869,
    "type": "PV"
  },
  {
    "nom": "",
    "ville": "MARANS",
    "date": "Mars 2023",
    "puissance": "9kwc",
    "lat": 46.301167,
    "lon": -0.993477,
    "type": "PV"
  },
  {
    "nom": "",
    "ville": "ANGOULINS",
    "date": "Mai 2025",
    "puissance": "3kwc",
    "lat": 46.105155,
    "lon": -1.10098,
    "type": "PV"
  },
  {
    "nom": "",
    "ville": "LE CHÂTEAU-D'OLÉRON",
    "date": "Juin 2023",
    "puissance": "7,5kwc",
    "lat": 45.877447,
    "lon": -1.200068,
    "type": "PV"
  },
  {
    "nom": "",
    "ville": "PÉRIGNY",
    "date": "Avril 2024",
    "puissance": "3kwc",
    "lat": 46.154336,
    "lon": -1.099502,
    "type": "PV"
  },
  {
    "nom": "",
    "ville": "LE THOU",
    "date": "Mai 2025",
    "puissance": "9kwc",
    "lat": 46.102892,
    "lon": -0.922042,
    "type": "PV"
  },
  {
    "nom": "",
    "ville": "LONGÈVES",
    "date": "Août 2025",
    "puissance": "3kwc",
    "lat": 46.386661,
    "lon": -0.969496,
    "type": "PV"
  },
  {
    "nom": "",
    "ville": "ESNANDES",
    "date": "Juin 2024",
    "puissance": "6kwc",
    "lat": 46.249709,
    "lon": -1.125972,
    "type": "PV"
  },
  {
    "nom": "",
    "ville": "TONNAY-CHARENTE",
    "date": "Janvier 2024",
    "puissance": "9kwc",
    "lat": 45.951749,
    "lon": -0.882509,
    "type": "PV"
  },
  {
    "nom": "",
    "ville": "ROCHEFORT",
    "date": "Août 2025",
    "puissance": "3kwc",
    "lat": 45.952006,
    "lon": -0.965494,
    "type": "PV"
  },
  {
    "nom": "",
    "ville": "YVES",
    "date": "Février 2024",
    "puissance": "6kwc",
    "lat": 46.021494,
    "lon": -1.006291,
    "type": "PV"
  },
  {
    "nom": "",
    "ville": "ÉCHILLAIS",
    "date": "Janvier 2025",
    "puissance": "6kwc",
    "lat": 45.898589,
    "lon": -0.925641,
    "type": "PV"
  },
  {
    "nom": "",
    "ville": "LONGÈVES",
    "date": "Mars 2024",
    "puissance": "7,5kwc",
    "lat": 46.364353,
    "lon": -0.966433,
    "type": "PV"
  },
  {
    "nom": "",
    "ville": "SAINT-AGNANT",
    "date": "Mai 2025",
    "puissance": "6kwc",
    "lat": 45.865417,
    "lon": -0.964727,
    "type": "PV"
  },
  {
    "nom": "",
    "ville": "BOUHET",
    "date": "Juin 2025",
    "puissance": "6kwc",
    "lat": 46.151589,
    "lon": -0.864713,
    "type": "PV"
  },
  {
    "nom": "",
    "ville": "SURGÈRES",
    "date": "Juillet 2024",
    "puissance": "9kwc",
    "lat": 46.110737,
    "lon": -0.769397,
    "type": "PV"
  },
  {
    "nom": "",
    "ville": "SAINT-JEAN-D'ANGÉLY",
    "date": "Mars 2025",
    "puissance": "9kwc",
    "lat": 45.934562,
    "lon": -0.529428,
    "type": "PV"
  },
  {
    "nom": "",
    "ville": "AYTRÉ",
    "date": "Mai 2024",
    "puissance": "9kwc",
    "lat": 46.141272,
    "lon": -1.090597,
    "type": "PV"
  },
  {
    "nom": "",
    "ville": "SAINTES",
    "date": "Avril 2025",
    "puissance": "9kwc",
    "lat": 45.746377,
    "lon": -0.625161,
    "type": "PV"
  },
  {
    "nom": "",
    "ville": "MARSILLY",
    "date": "Février 2023",
    "puissance": "6kwc",
    "lat": 46.231077,
    "lon": -1.139962,
    "type": "PV"
  },
  {
    "nom": "",
    "ville": "ANGOULINS",
    "date": "Février 2024",
    "puissance": "9kwc",
    "lat": 46.095165,
    "lon": -1.107194,
    "type": "PV"
  },
  {
    "nom": "",
    "ville": "CHAMBON",
    "date": "Octobre 2023",
    "puissance": "3kwc",
    "lat": 46.111382,
    "lon": -0.854999,
    "type": "PV"
  },
  {
    "nom": "",
    "ville": "CHAMBON",
    "date": "Août 2025",
    "puissance": "9kwc",
    "lat": 46.134963,
    "lon": -0.857142,
    "type": "PV"
  },
  {
    "nom": "",
    "ville": "THAIRÉ",
    "date": "Mars 2024",
    "puissance": "6kwc",
    "lat": 46.083729,
    "lon": -1.033379,
    "type": "PV"
  },
  {
    "nom": "",
    "ville": "LUÇON",
    "date": "Août 2025",
    "puissance": "12kwc",
    "lat": 46.46663,
    "lon": -1.153309,
    "type": "PV"
  },
  {
    "nom": "",
    "ville": "AYTRÉ",
    "date": "Décembre 2025",
    "puissance": "6kwc",
    "lat": 46.131595,
    "lon": -1.070114,
    "type": "PV"
  },
  {
    "nom": "",
    "ville": "LAGORD",
    "date": "Janvier 2026",
    "puissance": "7,5kwc",
    "lat": 46.193317,
    "lon": -1.154016,
    "type": "PV"
  },
  {
    "nom": "",
    "ville": "FORGES",
    "date": "Août 2024",
    "puissance": "9kwc",
    "lat": 46.036056,
    "lon": -0.84668,
    "type": "PV"
  },
  {
    "nom": "",
    "ville": "SAINT-PIERRE-D'OLÉRON",
    "date": "Mars 2025",
    "puissance": "3kwc",
    "lat": 45.938573,
    "lon": -1.297957,
    "type": "PV"
  },
  {
    "nom": "",
    "ville": "NIEUL-SUR-MER",
    "date": "Mars 2024",
    "puissance": "3kwc",
    "lat": 46.203934,
    "lon": -1.176091,
    "type": "PV"
  },
  {
    "nom": "",
    "ville": "SAINT-JEAN-D'ANGÉLY",
    "date": "Mai 2024",
    "puissance": "9kwc",
    "lat": 45.960302,
    "lon": -0.514537,
    "type": "PV"
  },
  {
    "nom": "",
    "ville": "ANGOULINS",
    "date": "Juillet 2023",
    "puissance": "3kwc",
    "lat": 46.106783,
    "lon": -1.10404,
    "type": "PV"
  },
  {
    "nom": "",
    "ville": "YVES",
    "date": "Novembre 2023",
    "puissance": "12kwc",
    "lat": 46.017609,
    "lon": -1.034035,
    "type": "PV"
  },
  {
    "nom": "",
    "ville": "SOUBISE",
    "date": "Juillet 2023",
    "puissance": "6kwc",
    "lat": 45.915748,
    "lon": -0.963066,
    "type": "PV"
  },
  {
    "nom": "",
    "ville": "TONNAY-CHARENTE",
    "date": "Novembre 2025",
    "puissance": "6kwc",
    "lat": 45.934874,
    "lon": -0.90662,
    "type": "PV"
  },
  {
    "nom": "",
    "ville": "MARANS",
    "date": "Décembre 2023",
    "puissance": "6kwc",
    "lat": 46.301374,
    "lon": -0.978755,
    "type": "PV"
  },
  {
    "nom": "",
    "ville": "CHARRON",
    "date": "Novembre 2023",
    "puissance": "9kwc",
    "lat": 46.297953,
    "lon": -1.096065,
    "type": "PV"
  },
  {
    "nom": "",
    "ville": "SAINT-MARTIN-DE-RÉ",
    "date": "Juin 2024",
    "puissance": "3kwc",
    "lat": 46.204089,
    "lon": -1.377657,
    "type": "PV"
  },
  {
    "nom": "",
    "ville": "SAINT-PIERRE-D'OLÉRON",
    "date": "Janvier 2026",
    "puissance": "9kwc",
    "lat": 45.937451,
    "lon": -1.314478,
    "type": "PV"
  },
  {
    "nom": "",
    "ville": "ROCHEFORT",
    "date": "Octobre 2024",
    "puissance": "6kwc",
    "lat": 45.944011,
    "lon": -0.945486,
    "type": "PV"
  },
  {
    "nom": "",
    "ville": "ROCHEFORT",
    "date": "Juillet 2024",
    "puissance": "7,5kwc",
    "lat": 45.938244,
    "lon": -0.954685,
    "type": "PV"
  },
  {
    "nom": "",
    "ville": "AIGREFEUILLE-D'AUNIS",
    "date": "Mai 2024",
    "puissance": "9kwc",
    "lat": 46.11448,
    "lon": -0.951715,
    "type": "PV"
  },
  {
    "nom": "",
    "ville": "SAINTES",
    "date": "Avril 2025",
    "puissance": "6kwc",
    "lat": 45.758921,
    "lon": -0.643308,
    "type": "PV"
  },
  {
    "nom": "",
    "ville": "BENON",
    "date": "Janvier 2026",
    "puissance": "6kwc",
    "lat": 46.184582,
    "lon": -0.818184,
    "type": "PV"
  },
  {
    "nom": "",
    "ville": "NUAILLÉ-D'AUNIS",
    "date": "Mars 2024",
    "puissance": "9kwc",
    "lat": 46.224116,
    "lon": -0.934953,
    "type": "PV"
  },
  {
    "nom": "",
    "ville": "SAINT-PIERRE-D'OLÉRON",
    "date": "Janvier 2026",
    "puissance": "7,5kwc",
    "lat": 45.948885,
    "lon": -1.308032,
    "type": "PV"
  },
  {
    "nom": "",
    "ville": "LAGORD",
    "date": "Novembre 2025",
    "puissance": "6kwc",
    "lat": 46.196201,
    "lon": -1.156197,
    "type": "PV"
  },
  {
    "nom": "",
    "ville": "SAINT-VIVIEN",
    "date": "Octobre 2023",
    "puissance": "6kwc",
    "lat": 46.115383,
    "lon": -1.054463,
    "type": "PV"
  },
  {
    "nom": "",
    "ville": "ÉCOYEUX",
    "date": "Juillet 2024",
    "puissance": "6kwc",
    "lat": 45.811702,
    "lon": -0.451859,
    "type": "PV"
  },
  {
    "nom": "",
    "ville": "ÎLE D'OLÉRON",
    "date": "Novembre 2025",
    "puissance": "70kwc",
    "lat": 45.9437,
    "lon": -1.3061,
    "type": "PV"
  },
  {
    "nom": "",
    "ville": "SOUBISE",
    "date": "Janvier 2025",
    "puissance": "",
    "lat": 45.921618,
    "lon": -0.948341,
    "type": "PAC"
  },
  {
    "nom": "",
    "ville": "CHANIERS",
    "date": "Février 2023",
    "puissance": "",
    "lat": 45.738701,
    "lon": -0.577074,
    "type": "PAC"
  },
  {
    "nom": "",
    "ville": "CHÂTELAILLON-PLAGE",
    "date": "Février 2024",
    "puissance": "",
    "lat": 46.069956,
    "lon": -1.076665,
    "type": "PAC"
  },
  {
    "nom": "",
    "ville": "PÉRIGNY",
    "date": "Mai 2025",
    "puissance": "",
    "lat": 46.160954,
    "lon": -1.106336,
    "type": "PAC"
  },
  {
    "nom": "",
    "ville": "SAINT-JEAN-D'ANGÉLY",
    "date": "Août 2023",
    "puissance": "",
    "lat": 45.954645,
    "lon": -0.530905,
    "type": "PAC"
  },
  {
    "nom": "",
    "ville": "DOLUS-D'OLÉRON",
    "date": "Février 2023",
    "puissance": "",
    "lat": 45.902537,
    "lon": -1.26786,
    "type": "PAC"
  },
  {
    "nom": "",
    "ville": "CHARRON",
    "date": "Juillet 2025",
    "puissance": "",
    "lat": 46.286974,
    "lon": -1.090639,
    "type": "PAC"
  },
  {
    "nom": "",
    "ville": "LUÇON",
    "date": "Juin 2025",
    "puissance": "",
    "lat": 46.453182,
    "lon": -1.168477,
    "type": "PAC"
  },
  {
    "nom": "",
    "ville": "LUÇON",
    "date": "Septembre 2025",
    "puissance": "",
    "lat": 46.464873,
    "lon": -1.173594,
    "type": "PAC"
  },
  {
    "nom": "",
    "ville": "THAIRÉ",
    "date": "Mars 2024",
    "puissance": "",
    "lat": 46.072731,
    "lon": -1.017531,
    "type": "PAC"
  },
  {
    "nom": "",
    "ville": "RIVEDOUX-PLAGE",
    "date": "Février 2024",
    "puissance": "",
    "lat": 46.163019,
    "lon": -1.27695,
    "type": "PAC"
  },
  {
    "nom": "",
    "ville": "CHAMBON",
    "date": "Septembre 2024",
    "puissance": "",
    "lat": 46.114483,
    "lon": -0.854219,
    "type": "PAC"
  },
  {
    "nom": "",
    "ville": "LAGORD",
    "date": "Mars 2024",
    "puissance": "",
    "lat": 46.186874,
    "lon": -1.134323,
    "type": "PAC"
  },
  {
    "nom": "",
    "ville": "AIGREFEUILLE-D'AUNIS",
    "date": "Avril 2025",
    "puissance": "",
    "lat": 46.115454,
    "lon": -0.946479,
    "type": "PAC"
  },
  {
    "nom": "",
    "ville": "AYTRÉ",
    "date": "Août 2024",
    "puissance": "",
    "lat": 46.135427,
    "lon": -1.072763,
    "type": "PAC"
  },
  {
    "nom": "",
    "ville": "SAINT-AGNANT",
    "date": "Juin 2025",
    "puissance": "",
    "lat": 45.855924,
    "lon": -0.986522,
    "type": "PAC"
  },
  {
    "nom": "",
    "ville": "FORGES",
    "date": "Février 2024",
    "puissance": "",
    "lat": 46.008466,
    "lon": -0.855177,
    "type": "PAC"
  },
  {
    "nom": "",
    "ville": "RIVEDOUX-PLAGE",
    "date": "Septembre 2024",
    "puissance": "",
    "lat": 46.161465,
    "lon": -1.266198,
    "type": "PAC"
  },
  {
    "nom": "",
    "ville": "TONNAY-CHARENTE",
    "date": "Octobre 2025",
    "puissance": "",
    "lat": 45.939297,
    "lon": -0.892548,
    "type": "PAC"
  },
  {
    "nom": "",
    "ville": "MARSILLY",
    "date": "Novembre 2023",
    "puissance": "",
    "lat": 46.236263,
    "lon": -1.145375,
    "type": "PAC"
  },
  {
    "nom": "",
    "ville": "SAINTE-HERMINE",
    "date": "Mars 2025",
    "puissance": "",
    "lat": 46.551834,
    "lon": -1.044063,
    "type": "PAC"
  },
  {
    "nom": "",
    "ville": "MARSILLY",
    "date": "Novembre 2023",
    "puissance": "",
    "lat": 46.228285,
    "lon": -1.14236,
    "type": "PAC"
  },
  {
    "nom": "",
    "ville": "AYTRÉ",
    "date": "Juillet 2023",
    "puissance": "",
    "lat": 46.133192,
    "lon": -1.089902,
    "type": "PAC"
  },
  {
    "nom": "",
    "ville": "FOURAS",
    "date": "Janvier 2025",
    "puissance": "",
    "lat": 45.989908,
    "lon": -1.099655,
    "type": "PAC"
  },
  {
    "nom": "",
    "ville": "LE CHÂTEAU-D'OLÉRON",
    "date": "Mars 2024",
    "puissance": "",
    "lat": 45.875881,
    "lon": -1.213679,
    "type": "PAC"
  },
  {
    "nom": "",
    "ville": "AIGREFEUILLE-D'AUNIS",
    "date": "Mars 2025",
    "puissance": "",
    "lat": 46.098945,
    "lon": -0.941736,
    "type": "PAC"
  },
  {
    "nom": "",
    "ville": "MARANS",
    "date": "Janvier 2024",
    "puissance": "",
    "lat": 46.297167,
    "lon": -0.996838,
    "type": "PAC"
  },
  {
    "nom": "",
    "ville": "YVES",
    "date": "Décembre 2024",
    "puissance": "",
    "lat": 46.010692,
    "lon": -1.048628,
    "type": "PAC"
  },
  {
    "nom": "",
    "ville": "ROCHEFORT",
    "date": "Septembre 2024",
    "puissance": "",
    "lat": 45.946473,
    "lon": -0.954502,
    "type": "PAC"
  },
  {
    "nom": "",
    "ville": "NIEUL-SUR-MER",
    "date": "Février 2025",
    "puissance": "",
    "lat": 46.211571,
    "lon": -1.158894,
    "type": "PAC"
  },
  {
    "nom": "",
    "ville": "ROCHEFORT",
    "date": "Juin 2023",
    "puissance": "",
    "lat": 45.954242,
    "lon": -0.967414,
    "type": "PAC"
  },
  {
    "nom": "",
    "ville": "LONGÈVES",
    "date": "Août 2025",
    "puissance": "",
    "lat": 46.380849,
    "lon": -0.947626,
    "type": "PAC"
  },
  {
    "nom": "",
    "ville": "FONTCOUVERTE",
    "date": "Janvier 2026",
    "puissance": "",
    "lat": 45.71801,
    "lon": -0.491901,
    "type": "PAC"
  },
  {
    "nom": "",
    "ville": "MARANS",
    "date": "Juin 2025",
    "puissance": "",
    "lat": 46.313068,
    "lon": -0.978634,
    "type": "PAC"
  },
  {
    "nom": "",
    "ville": "SURGÈRES",
    "date": "Juin 2025",
    "puissance": "",
    "lat": 46.109987,
    "lon": -0.751278,
    "type": "PAC"
  },
  {
    "nom": "",
    "ville": "LE CHÂTEAU-D'OLÉRON",
    "date": "Novembre 2025",
    "puissance": "",
    "lat": 45.870789,
    "lon": -1.208634,
    "type": "PAC"
  },
  {
    "nom": "",
    "ville": "CHAILLÉ-LES-MARAIS",
    "date": "Septembre 2024",
    "puissance": "",
    "lat": 46.407635,
    "lon": -1.030629,
    "type": "PAC"
  },
  {
    "nom": "",
    "ville": "SAINTES",
    "date": "Février 2024",
    "puissance": "",
    "lat": 45.734344,
    "lon": -0.627454,
    "type": "PAC"
  },
  {
    "nom": "",
    "ville": "ÉCOYEUX",
    "date": "Mai 2023",
    "puissance": "",
    "lat": 45.807941,
    "lon": -0.448583,
    "type": "PAC"
  },
  {
    "nom": "",
    "ville": "FOURAS",
    "date": "Novembre 2023",
    "puissance": "",
    "lat": 45.979155,
    "lon": -1.099925,
    "type": "PAC"
  },
  {
    "nom": "",
    "ville": "SOUBISE",
    "date": "Avril 2023",
    "puissance": "",
    "lat": 45.934174,
    "lon": -0.953451,
    "type": "PAC"
  },
  {
    "nom": "",
    "ville": "LAGORD",
    "date": "Août 2025",
    "puissance": "",
    "lat": 46.186591,
    "lon": -1.134488,
    "type": "PAC"
  },
  {
    "nom": "",
    "ville": "DOLUS-D'OLÉRON",
    "date": "Juin 2023",
    "puissance": "",
    "lat": 45.919413,
    "lon": -1.264052,
    "type": "PAC"
  },
  {
    "nom": "",
    "ville": "NIEUL-SUR-MER",
    "date": "Février 2024",
    "puissance": "",
    "lat": 46.214112,
    "lon": -1.155928,
    "type": "PAC"
  },
  {
    "nom": "",
    "ville": "ROCHEFORT",
    "date": "Février 2025",
    "puissance": "",
    "lat": 45.956177,
    "lon": -0.971535,
    "type": "PAC"
  },
  {
    "nom": "",
    "ville": "PÉRIGNY",
    "date": "Décembre 2023",
    "puissance": "",
    "lat": 46.163509,
    "lon": -1.09961,
    "type": "PAC"
  },
  {
    "nom": "",
    "ville": "LONGÈVES",
    "date": "Janvier 2026",
    "puissance": "",
    "lat": 46.376185,
    "lon": -0.955175,
    "type": "PAC"
  },
  {
    "nom": "",
    "ville": "AIGREFEUILLE-D'AUNIS",
    "date": "Janvier 2026",
    "puissance": "",
    "lat": 46.116839,
    "lon": -0.923958,
    "type": "PAC"
  },
  {
    "nom": "",
    "ville": "LA FLOTTE",
    "date": "Janvier 2026",
    "puissance": "",
    "lat": 46.17945,
    "lon": -1.335607,
    "type": "PAC"
  },
  {
    "nom": "",
    "ville": "NIEUL-SUR-MER",
    "date": "Juillet 2024",
    "puissance": "",
    "lat": 46.199626,
    "lon": -1.16811,
    "type": "PAC"
  },
  {
    "nom": "",
    "ville": "RIVEDOUX-PLAGE",
    "date": "Janvier 2026",
    "puissance": "",
    "lat": 46.169096,
    "lon": -1.266822,
    "type": "PAC"
  },
  {
    "nom": "",
    "ville": "LE CHÂTEAU-D'OLÉRON",
    "date": "Octobre 2024",
    "puissance": "",
    "lat": 45.892716,
    "lon": -1.202205,
    "type": "PAC"
  },
  {
    "nom": "",
    "ville": "FONTENAY-LE-COMTE",
    "date": "Décembre 2024",
    "puissance": "",
    "lat": 46.476386,
    "lon": -0.810728,
    "type": "PAC"
  },
  {
    "nom": "",
    "ville": "ROCHEFORT",
    "date": "Mars 2024",
    "puissance": "",
    "lat": 45.938175,
    "lon": -0.948788,
    "type": "PAC"
  },
  {
    "nom": "",
    "ville": "SAINTE-HERMINE",
    "date": "Août 2024",
    "puissance": "",
    "lat": 46.564218,
    "lon": -1.059256,
    "type": "PAC"
  },
  {
    "nom": "",
    "ville": "DOLUS-D'OLÉRON",
    "date": "Décembre 2025",
    "puissance": "",
    "lat": 45.900436,
    "lon": -1.244555,
    "type": "PAC"
  },
  {
    "nom": "",
    "ville": "ROCHEFORT",
    "date": "Avril 2023",
    "puissance": "",
    "lat": 45.938647,
    "lon": -0.965187,
    "type": "PAC"
  },
  {
    "nom": "",
    "ville": "LAGORD",
    "date": "Décembre 2024",
    "puissance": "",
    "lat": 46.197609,
    "lon": -1.146488,
    "type": "PAC"
  },
  {
    "nom": "",
    "ville": "PÉRIGNY",
    "date": "Octobre 2023",
    "puissance": "",
    "lat": 46.1415,
    "lon": -1.10646,
    "type": "PAC"
  },
  {
    "nom": "",
    "ville": "NIEUL-SUR-MER",
    "date": "Décembre 2024",
    "puissance": "",
    "lat": 46.203319,
    "lon": -1.176155,
    "type": "PAC"
  },
  {
    "nom": "",
    "ville": "CHANIERS",
    "date": "Mars 2024",
    "puissance": "",
    "lat": 45.731934,
    "lon": -0.570963,
    "type": "PAC"
  },
  {
    "nom": "",
    "ville": "SOUBISE",
    "date": "Janvier 2024",
    "puissance": "",
    "lat": 45.922143,
    "lon": -0.956484,
    "type": "PAC"
  },
  {
    "nom": "",
    "ville": "COURÇON",
    "date": "Mars 2025",
    "puissance": "",
    "lat": 46.234608,
    "lon": -0.804433,
    "type": "PAC"
  },
  {
    "nom": "",
    "ville": "LE THOU",
    "date": "Août 2024",
    "puissance": "",
    "lat": 46.094422,
    "lon": -0.900624,
    "type": "PAC"
  },
  {
    "nom": "",
    "ville": "SURGÈRES",
    "date": "Mai 2024",
    "puissance": "",
    "lat": 46.100757,
    "lon": -0.761859,
    "type": "PAC"
  },
  {
    "nom": "",
    "ville": "COURÇON",
    "date": "Janvier 2025",
    "puissance": "",
    "lat": 46.258245,
    "lon": -0.804137,
    "type": "PAC"
  },
  {
    "nom": "",
    "ville": "YVES",
    "date": "Décembre 2023",
    "puissance": "",
    "lat": 46.007692,
    "lon": -1.039128,
    "type": "PAC"
  },
  {
    "nom": "",
    "ville": "ESNANDES",
    "date": "Avril 2024",
    "puissance": "",
    "lat": 46.252857,
    "lon": -1.105117,
    "type": "PAC"
  },
  {
    "nom": "",
    "ville": "FONTENAY-LE-COMTE",
    "date": "Octobre 2024",
    "puissance": "",
    "lat": 46.461291,
    "lon": -0.803865,
    "type": "PAC"
  },
  {
    "nom": "",
    "ville": "FONTCOUVERTE",
    "date": "Mai 2024",
    "puissance": "",
    "lat": 45.730216,
    "lon": -0.492415,
    "type": "PAC"
  },
  {
    "nom": "",
    "ville": "ROCHEFORT",
    "date": "Juillet 2023",
    "puissance": "",
    "lat": 45.946518,
    "lon": -0.957041,
    "type": "PAC"
  },
  {
    "nom": "",
    "ville": "FONTENAY-LE-COMTE",
    "date": "Novembre 2024",
    "puissance": "",
    "lat": 46.476566,
    "lon": -0.806209,
    "type": "PAC"
  },
  {
    "nom": "",
    "ville": "DOLUS-D'OLÉRON",
    "date": "Septembre 2025",
    "puissance": "",
    "lat": 45.906799,
    "lon": -1.25876,
    "type": "PAC"
  },
  {
    "nom": "",
    "ville": "SAINT-MARTIN-DE-RÉ",
    "date": "Août 2025",
    "puissance": "",
    "lat": 46.20337,
    "lon": -1.374026,
    "type": "PAC"
  },
  {
    "nom": "",
    "ville": "AIGREFEUILLE-D'AUNIS",
    "date": "Juin 2025",
    "puissance": "",
    "lat": 46.120247,
    "lon": -0.934656,
    "type": "PAC"
  },
  {
    "nom": "",
    "ville": "ROCHEFORT",
    "date": "Décembre 2023",
    "puissance": "",
    "lat": 45.927748,
    "lon": -0.958019,
    "type": "PAC"
  },
  {
    "nom": "",
    "ville": "LAGORD",
    "date": "Novembre 2025",
    "puissance": "",
    "lat": 46.199783,
    "lon": -1.150781,
    "type": "PAC"
  },
  {
    "nom": "",
    "ville": "COURÇON",
    "date": "Novembre 2025",
    "puissance": "",
    "lat": 46.244912,
    "lon": -0.804406,
    "type": "PAC"
  },
  {
    "nom": "",
    "ville": "PÉRIGNY",
    "date": "Janvier 2025",
    "puissance": "",
    "lat": 46.151652,
    "lon": -1.08516,
    "type": "PAC"
  },
  {
    "nom": "",
    "ville": "SAINT-AGNANT",
    "date": "Juillet 2023",
    "puissance": "",
    "lat": 45.862921,
    "lon": -0.977179,
    "type": "PAC"
  },
  {
    "nom": "",
    "ville": "BENON",
    "date": "Septembre 2025",
    "puissance": "",
    "lat": 46.205001,
    "lon": -0.834058,
    "type": "VMC"
  },
  {
    "nom": "",
    "ville": "FONTENAY-LE-COMTE",
    "date": "Avril 2023",
    "puissance": "",
    "lat": 46.454018,
    "lon": -0.801224,
    "type": "VMC"
  },
  {
    "nom": "",
    "ville": "CIRÉ-D'AUNIS",
    "date": "Septembre 2023",
    "puissance": "",
    "lat": 46.06577,
    "lon": -0.891069,
    "type": "VMC"
  },
  {
    "nom": "",
    "ville": "ÉCHILLAIS",
    "date": "Décembre 2025",
    "puissance": "",
    "lat": 45.893959,
    "lon": -0.945608,
    "type": "VMC"
  },
  {
    "nom": "",
    "ville": "CHÂTELAILLON-PLAGE",
    "date": "Août 2025",
    "puissance": "",
    "lat": 46.086541,
    "lon": -1.079307,
    "type": "VMC"
  },
  {
    "nom": "",
    "ville": "COURÇON",
    "date": "Octobre 2024",
    "puissance": "",
    "lat": 46.232879,
    "lon": -0.824009,
    "type": "VMC"
  },
  {
    "nom": "",
    "ville": "ESNANDES",
    "date": "Juin 2023",
    "puissance": "",
    "lat": 46.248116,
    "lon": -1.103353,
    "type": "VMC"
  },
  {
    "nom": "",
    "ville": "LOIRE-LES-MARAIS",
    "date": "Juin 2023",
    "puissance": "",
    "lat": 45.956035,
    "lon": -0.895958,
    "type": "VMC"
  },
  {
    "nom": "",
    "ville": "SAINT-VIVIEN",
    "date": "Mars 2025",
    "puissance": "",
    "lat": 46.126794,
    "lon": -1.059986,
    "type": "VMC"
  },
  {
    "nom": "",
    "ville": "ESNANDES",
    "date": "Mai 2025",
    "puissance": "",
    "lat": 46.247113,
    "lon": -1.105128,
    "type": "VMC"
  },
  {
    "nom": "",
    "ville": "PÉRIGNY",
    "date": "Juin 2024",
    "puissance": "",
    "lat": 46.134209,
    "lon": -1.099268,
    "type": "VMC"
  },
  {
    "nom": "",
    "ville": "AYTRÉ",
    "date": "Avril 2025",
    "puissance": "",
    "lat": 46.12026,
    "lon": -1.073323,
    "type": "VMC"
  },
  {
    "nom": "",
    "ville": "ANGOULINS",
    "date": "Mai 2023",
    "puissance": "",
    "lat": 46.120615,
    "lon": -1.097005,
    "type": "VMC"
  },
  {
    "nom": "",
    "ville": "CHAILLÉ-LES-MARAIS",
    "date": "Avril 2023",
    "puissance": "",
    "lat": 46.412625,
    "lon": -1.01406,
    "type": "VMC"
  },
  {
    "nom": "",
    "ville": "LAGORD",
    "date": "Décembre 2023",
    "puissance": "",
    "lat": 46.19854,
    "lon": -1.150653,
    "type": "VMC"
  },
  {
    "nom": "",
    "ville": "NIEUL-SUR-MER",
    "date": "Mars 2024",
    "puissance": "",
    "lat": 46.203931,
    "lon": -1.169948,
    "type": "VMC"
  },
  {
    "nom": "",
    "ville": "CIRÉ-D'AUNIS",
    "date": "Janvier 2026",
    "puissance": "",
    "lat": 46.060543,
    "lon": -0.883334,
    "type": "VMC"
  },
  {
    "nom": "",
    "ville": "CHARRON",
    "date": "Février 2024",
    "puissance": "",
    "lat": 46.294555,
    "lon": -1.097614,
    "type": "VMC"
  },
  {
    "nom": "",
    "ville": "SAINT-PIERRE-D'OLÉRON",
    "date": "Mars 2024",
    "puissance": "",
    "lat": 45.95809,
    "lon": -1.316754,
    "type": "VMC"
  },
  {
    "nom": "",
    "ville": "CIRÉ-D'AUNIS",
    "date": "Septembre 2025",
    "puissance": "",
    "lat": 46.055291,
    "lon": -0.900969,
    "type": "VMC"
  },
  {
    "nom": "",
    "ville": "MARANS",
    "date": "Novembre 2024",
    "puissance": "",
    "lat": 46.30042,
    "lon": -0.98622,
    "type": "VMC"
  },
  {
    "nom": "",
    "ville": "THAIRÉ",
    "date": "Janvier 2026",
    "puissance": "",
    "lat": 46.06905,
    "lon": -1.00931,
    "type": "VMC"
  },
  {
    "nom": "",
    "ville": "LAGORD",
    "date": "Février 2024",
    "puissance": "",
    "lat": 46.174162,
    "lon": -1.137012,
    "type": "VMC"
  },
  {
    "nom": "",
    "ville": "AYTRÉ",
    "date": "Novembre 2024",
    "puissance": "",
    "lat": 46.145683,
    "lon": -1.072926,
    "type": "VMC"
  },
  {
    "nom": "",
    "ville": "PÉRIGNY",
    "date": "Avril 2025",
    "puissance": "",
    "lat": 46.137934,
    "lon": -1.094772,
    "type": "VMC"
  },
  {
    "nom": "",
    "ville": "THAIRÉ",
    "date": "Octobre 2023",
    "puissance": "",
    "lat": 46.071488,
    "lon": -1.035714,
    "type": "VMC"
  },
  {
    "nom": "",
    "ville": "CHÂTELAILLON-PLAGE",
    "date": "Avril 2023",
    "puissance": "",
    "lat": 46.06055,
    "lon": -1.085488,
    "type": "VMC"
  },
  {
    "nom": "",
    "ville": "THAIRÉ",
    "date": "Septembre 2024",
    "puissance": "",
    "lat": 46.080297,
    "lon": -1.008428,
    "type": "VMC"
  },
  {
    "nom": "",
    "ville": "COURÇON",
    "date": "Juillet 2024",
    "puissance": "",
    "lat": 46.230758,
    "lon": -0.824553,
    "type": "VMC"
  },
  {
    "nom": "",
    "ville": "FORGES",
    "date": "Janvier 2026",
    "puissance": "",
    "lat": 46.011246,
    "lon": -0.840059,
    "type": "VMC"
  },
  {
    "nom": "",
    "ville": "SAINT-AGNANT",
    "date": "Septembre 2025",
    "puissance": "",
    "lat": 45.867177,
    "lon": -0.99341,
    "type": "VMC"
  },
  {
    "nom": "",
    "ville": "LA FLOTTE",
    "date": "Août 2025",
    "puissance": "",
    "lat": 46.190771,
    "lon": -1.321494,
    "type": "VMC"
  },
  {
    "nom": "",
    "ville": "LAGORD",
    "date": "Novembre 2025",
    "puissance": "",
    "lat": 46.172654,
    "lon": -1.146216,
    "type": "VMC"
  },
  {
    "nom": "",
    "ville": "SAINT-PIERRE-D'OLÉRON",
    "date": "Janvier 2024",
    "puissance": "",
    "lat": 45.944222,
    "lon": -1.297519,
    "type": "VMC"
  },
  {
    "nom": "",
    "ville": "LA FLOTTE",
    "date": "Décembre 2024",
    "puissance": "",
    "lat": 46.19615,
    "lon": -1.325995,
    "type": "VMC"
  },
  {
    "nom": "",
    "ville": "DOLUS-D'OLÉRON",
    "date": "Mai 2025",
    "puissance": "",
    "lat": 45.908219,
    "lon": -1.258359,
    "type": "VMC"
  },
  {
    "nom": "",
    "ville": "SOUBISE",
    "date": "Novembre 2024",
    "puissance": "",
    "lat": 45.919886,
    "lon": -0.964115,
    "type": "VMC"
  },
  {
    "nom": "",
    "ville": "ANGOULINS",
    "date": "Octobre 2025",
    "puissance": "",
    "lat": 46.097401,
    "lon": -1.114749,
    "type": "VMC"
  },
  {
    "nom": "",
    "ville": "ÉCHILLAIS",
    "date": "Février 2025",
    "puissance": "",
    "lat": 45.903502,
    "lon": -0.928854,
    "type": "VMC"
  },
  {
    "nom": "",
    "ville": "PÉRIGNY",
    "date": "Novembre 2025",
    "puissance": "",
    "lat": 46.151668,
    "lon": -1.079009,
    "type": "VMC"
  },
  {
    "nom": "",
    "ville": "LAGORD",
    "date": "Janvier 2024",
    "puissance": "",
    "lat": 46.198155,
    "lon": -1.145689,
    "type": "VMC"
  },
  {
    "nom": "",
    "ville": "SAINTE-HERMINE",
    "date": "Février 2025",
    "puissance": "",
    "lat": 46.544738,
    "lon": -1.065812,
    "type": "VMC"
  },
  {
    "nom": "",
    "ville": "ROCHEFORT",
    "date": "Janvier 2026",
    "puissance": "",
    "lat": 45.940862,
    "lon": -0.962953,
    "type": "VMC"
  },
  {
    "nom": "",
    "ville": "MARSILLY",
    "date": "Janvier 2026",
    "puissance": "",
    "lat": 46.233086,
    "lon": -1.152258,
    "type": "VMC"
  },
  {
    "nom": "",
    "ville": "ARS-EN-RÉ",
    "date": "Juillet 2025",
    "puissance": "",
    "lat": 46.204214,
    "lon": -1.503484,
    "type": "VMC"
  },
  {
    "nom": "",
    "ville": "SAINTES",
    "date": "Novembre 2023",
    "puissance": "",
    "lat": 45.731031,
    "lon": -0.639781,
    "type": "VMC"
  },
  {
    "nom": "",
    "ville": "SAINT-PIERRE-D'OLÉRON",
    "date": "Janvier 2024",
    "puissance": "",
    "lat": 45.939605,
    "lon": -1.293297,
    "type": "VMC"
  },
  {
    "nom": "",
    "ville": "AIGREFEUILLE-D'AUNIS",
    "date": "Mars 2024",
    "puissance": "",
    "lat": 46.119476,
    "lon": -0.946233,
    "type": "VMC"
  },
  {
    "nom": "",
    "ville": "FOURAS",
    "date": "Juin 2024",
    "puissance": "",
    "lat": 45.988856,
    "lon": -1.096948,
    "type": "VMC"
  },
  {
    "nom": "",
    "ville": "NUAILLÉ-D'AUNIS",
    "date": "Novembre 2024",
    "puissance": "",
    "lat": 46.213481,
    "lon": -0.955753,
    "type": "VMC"
  },
  {
    "nom": "",
    "ville": "SAINT-PIERRE-D'OLÉRON",
    "date": "Juillet 2024",
    "puissance": "",
    "lat": 45.947805,
    "lon": -1.309352,
    "type": "VMC"
  },
  {
    "nom": "",
    "ville": "DOLUS-D'OLÉRON",
    "date": "Août 2024",
    "puissance": "",
    "lat": 45.908319,
    "lon": -1.246845,
    "type": "VMC"
  },
  {
    "nom": "",
    "ville": "SAINTES",
    "date": "Août 2024",
    "puissance": "",
    "lat": 45.732177,
    "lon": -0.635102,
    "type": "VMC"
  },
  {
    "nom": "",
    "ville": "SAINT-MARTIN-DE-RÉ",
    "date": "Juin 2025",
    "puissance": "",
    "lat": 46.210263,
    "lon": -1.37058,
    "type": "VMC"
  },
  {
    "nom": "",
    "ville": "L'HOUMEAU",
    "date": "Mai 2023",
    "puissance": "",
    "lat": 46.179422,
    "lon": -1.17626,
    "type": "Electricite"
  },
  {
    "nom": "",
    "ville": "TONNAY-CHARENTE",
    "date": "Avril 2024",
    "puissance": "",
    "lat": 45.956625,
    "lon": -0.905178,
    "type": "Electricite"
  },
  {
    "nom": "",
    "ville": "CIRÉ-D'AUNIS",
    "date": "Mai 2023",
    "puissance": "",
    "lat": 46.043314,
    "lon": -0.901259,
    "type": "Electricite"
  },
  {
    "nom": "",
    "ville": "CHAILLÉ-LES-MARAIS",
    "date": "Septembre 2024",
    "puissance": "",
    "lat": 46.397048,
    "lon": -1.030285,
    "type": "Electricite"
  },
  {
    "nom": "",
    "ville": "BUSSAC-SUR-CHARENTE",
    "date": "Décembre 2024",
    "puissance": "",
    "lat": 45.762216,
    "lon": -0.514007,
    "type": "Electricite"
  },
  {
    "nom": "",
    "ville": "ROCHEFORT",
    "date": "Avril 2025",
    "puissance": "",
    "lat": 45.929544,
    "lon": -0.962219,
    "type": "Electricite"
  },
  {
    "nom": "",
    "ville": "VIRSON",
    "date": "Février 2024",
    "puissance": "",
    "lat": 46.066783,
    "lon": -0.822411,
    "type": "Electricite"
  },
  {
    "nom": "",
    "ville": "AYTRÉ",
    "date": "Juin 2024",
    "puissance": "",
    "lat": 46.140126,
    "lon": -1.089819,
    "type": "Electricite"
  },
  {
    "nom": "",
    "ville": "SAINT-AGNANT",
    "date": "Mai 2025",
    "puissance": "",
    "lat": 45.868969,
    "lon": -0.96675,
    "type": "Electricite"
  },
  {
    "nom": "",
    "ville": "CIRÉ-D'AUNIS",
    "date": "Août 2024",
    "puissance": "",
    "lat": 46.070733,
    "lon": -0.898981,
    "type": "Electricite"
  },
  {
    "nom": "",
    "ville": "SAINT-AGNANT",
    "date": "Avril 2025",
    "puissance": "",
    "lat": 45.880196,
    "lon": -0.97291,
    "type": "Electricite"
  },
  {
    "nom": "",
    "ville": "SAINTES",
    "date": "Novembre 2023",
    "puissance": "",
    "lat": 45.76044,
    "lon": -0.646714,
    "type": "Electricite"
  },
  {
    "nom": "",
    "ville": "FOURAS",
    "date": "Mars 2024",
    "puissance": "",
    "lat": 45.979206,
    "lon": -1.099464,
    "type": "Electricite"
  },
  {
    "nom": "",
    "ville": "TONNAY-CHARENTE",
    "date": "Juillet 2025",
    "puissance": "",
    "lat": 45.938817,
    "lon": -0.899882,
    "type": "Electricite"
  },
  {
    "nom": "",
    "ville": "SAINT-MARTIN-DE-RÉ",
    "date": "Décembre 2024",
    "puissance": "",
    "lat": 46.214267,
    "lon": -1.363712,
    "type": "Electricite"
  },
  {
    "nom": "",
    "ville": "LA ROCHELLE",
    "date": "Avril 2024",
    "puissance": "",
    "lat": 46.17505,
    "lon": -1.152192,
    "type": "Electricite"
  },
  {
    "nom": "",
    "ville": "LUÇON",
    "date": "Août 2024",
    "puissance": "",
    "lat": 46.446708,
    "lon": -1.163112,
    "type": "Electricite"
  },
  {
    "nom": "",
    "ville": "YVES",
    "date": "Avril 2025",
    "puissance": "",
    "lat": 46.025946,
    "lon": -1.011275,
    "type": "Electricite"
  },
  {
    "nom": "",
    "ville": "CHÂTELAILLON-PLAGE",
    "date": "Septembre 2025",
    "puissance": "",
    "lat": 46.073843,
    "lon": -1.096756,
    "type": "Electricite"
  },
  {
    "nom": "",
    "ville": "LUÇON",
    "date": "Décembre 2023",
    "puissance": "",
    "lat": 46.46576,
    "lon": -1.156342,
    "type": "Electricite"
  },
  {
    "nom": "",
    "ville": "SURGÈRES",
    "date": "Avril 2025",
    "puissance": "",
    "lat": 46.115013,
    "lon": -0.74777,
    "type": "Electricite"
  },
  {
    "nom": "",
    "ville": "CHANIERS",
    "date": "Juin 2024",
    "puissance": "",
    "lat": 45.741854,
    "lon": -0.572277,
    "type": "Electricite"
  },
  {
    "nom": "",
    "ville": "SAINTES",
    "date": "Juillet 2024",
    "puissance": "",
    "lat": 45.734934,
    "lon": -0.621593,
    "type": "Electricite"
  },
  {
    "nom": "",
    "ville": "SURGÈRES",
    "date": "Mai 2024",
    "puissance": "",
    "lat": 46.10661,
    "lon": -0.766777,
    "type": "Electricite"
  },
  {
    "nom": "",
    "ville": "AIGREFEUILLE-D'AUNIS",
    "date": "Janvier 2026",
    "puissance": "",
    "lat": 46.099721,
    "lon": -0.944137,
    "type": "Electricite"
  },
  {
    "nom": "",
    "ville": "SAINT-PIERRE-D'OLÉRON",
    "date": "Août 2024",
    "puissance": "",
    "lat": 45.95317,
    "lon": -1.300344,
    "type": "Electricite"
  },
  {
    "nom": "",
    "ville": "MURON",
    "date": "Novembre 2023",
    "puissance": "",
    "lat": 46.024926,
    "lon": -0.835402,
    "type": "Electricite"
  },
  {
    "nom": "",
    "ville": "TONNAY-CHARENTE",
    "date": "Novembre 2024",
    "puissance": "",
    "lat": 45.944706,
    "lon": -0.902027,
    "type": "Electricite"
  },
  {
    "nom": "",
    "ville": "NUAILLÉ-D'AUNIS",
    "date": "Juillet 2025",
    "puissance": "",
    "lat": 46.235238,
    "lon": -0.9371,
    "type": "Electricite"
  },
  {
    "nom": "",
    "ville": "SAINT-PIERRE-D'OLÉRON",
    "date": "Février 2025",
    "puissance": "",
    "lat": 45.939032,
    "lon": -1.303643,
    "type": "Electricite"
  },
  {
    "nom": "",
    "ville": "NIEUL-SUR-MER",
    "date": "Août 2025",
    "puissance": "",
    "lat": 46.212281,
    "lon": -1.170952,
    "type": "Electricite"
  },
  {
    "nom": "",
    "ville": "BOUHET",
    "date": "Avril 2025",
    "puissance": "",
    "lat": 46.135206,
    "lon": -0.889574,
    "type": "Electricite"
  },
  {
    "nom": "",
    "ville": "SAINT-AGNANT",
    "date": "Juillet 2025",
    "puissance": "",
    "lat": 45.878845,
    "lon": -0.979424,
    "type": "Electricite"
  },
  {
    "nom": "",
    "ville": "LA FLOTTE",
    "date": "Juillet 2023",
    "puissance": "",
    "lat": 46.188885,
    "lon": -1.326876,
    "type": "Electricite"
  },
  {
    "nom": "",
    "ville": "MARANS",
    "date": "Juin 2024",
    "puissance": "",
    "lat": 46.319376,
    "lon": -0.978354,
    "type": "Electricite"
  },
  {
    "nom": "",
    "ville": "BOUHET",
    "date": "Avril 2025",
    "puissance": "",
    "lat": 46.151366,
    "lon": -0.86627,
    "type": "Electricite"
  },
  {
    "nom": "",
    "ville": "SAINTES",
    "date": "Novembre 2024",
    "puissance": "",
    "lat": 45.757311,
    "lon": -0.624288,
    "type": "Electricite"
  },
  {
    "nom": "",
    "ville": "AIGREFEUILLE-D'AUNIS",
    "date": "Mars 2023",
    "puissance": "",
    "lat": 46.116171,
    "lon": -0.945205,
    "type": "Electricite"
  },
  {
    "nom": "",
    "ville": "AIGREFEUILLE-D'AUNIS",
    "date": "Août 2023",
    "puissance": "",
    "lat": 46.126675,
    "lon": -0.927676,
    "type": "Electricite"
  },
  {
    "nom": "",
    "ville": "AIGREFEUILLE-D'AUNIS",
    "date": "Juillet 2024",
    "puissance": "",
    "lat": 46.098102,
    "lon": -0.945449,
    "type": "Electricite"
  },
  {
    "nom": "",
    "ville": "FOURAS",
    "date": "Avril 2025",
    "puissance": "",
    "lat": 45.988956,
    "lon": -1.096754,
    "type": "Electricite"
  },
  {
    "nom": "",
    "ville": "CHAMBON",
    "date": "Mars 2025",
    "puissance": "",
    "lat": 46.1225,
    "lon": -0.83656,
    "type": "Electricite"
  },
  {
    "nom": "",
    "ville": "VIRSON",
    "date": "Juillet 2025",
    "puissance": "",
    "lat": 46.057505,
    "lon": -0.81664,
    "type": "Electricite"
  },
  {
    "nom": "",
    "ville": "MARSILLY",
    "date": "Décembre 2023",
    "puissance": "",
    "lat": 46.228355,
    "lon": -1.147299,
    "type": "Electricite"
  },
  {
    "nom": "",
    "ville": "FONTENAY-LE-COMTE",
    "date": "Février 2025",
    "puissance": "",
    "lat": 46.469158,
    "lon": -0.805028,
    "type": "Electricite"
  },
  {
    "nom": "",
    "ville": "SURGÈRES",
    "date": "Décembre 2025",
    "puissance": "",
    "lat": 46.113147,
    "lon": -0.756216,
    "type": "Electricite"
  },
  {
    "nom": "",
    "ville": "SURGÈRES",
    "date": "Septembre 2023",
    "puissance": "",
    "lat": 46.111411,
    "lon": -0.768721,
    "type": "Electricite"
  },
  {
    "nom": "",
    "ville": "LUÇON",
    "date": "Janvier 2024",
    "puissance": "",
    "lat": 46.449475,
    "lon": -1.158442,
    "type": "Electricite"
  },
  {
    "nom": "",
    "ville": "AIGREFEUILLE-D'AUNIS",
    "date": "Décembre 2025",
    "puissance": "",
    "lat": 46.120751,
    "lon": -0.939702,
    "type": "Electricite"
  },
  {
    "nom": "",
    "ville": "ÉCHILLAIS",
    "date": "Août 2023",
    "puissance": "",
    "lat": 45.899481,
    "lon": -0.933544,
    "type": "Electricite"
  },
  {
    "nom": "",
    "ville": "FONTENAY-LE-COMTE",
    "date": "Janvier 2026",
    "puissance": "",
    "lat": 46.468963,
    "lon": -0.801343,
    "type": "Electricite"
  },
  {
    "nom": "",
    "ville": "SOUBISE",
    "date": "Janvier 2023",
    "puissance": "",
    "lat": 45.925211,
    "lon": -0.949659,
    "type": "Electricite"
  },
  {
    "nom": "",
    "ville": "ROCHEFORT",
    "date": "Avril 2023",
    "puissance": "",
    "lat": 45.940356,
    "lon": -0.943572,
    "type": "Electricite"
  },
  {
    "nom": "",
    "ville": "TONNAY-CHARENTE",
    "date": "Janvier 2025",
    "puissance": "",
    "lat": 45.955213,
    "lon": -0.891787,
    "type": "Electricite"
  },
  {
    "nom": "",
    "ville": "LUÇON",
    "date": "Juin 2024",
    "puissance": "",
    "lat": 46.458611,
    "lon": -1.170028,
    "type": "Electricite"
  },
  {
    "nom": "",
    "ville": "LE THOU",
    "date": "Mars 2025",
    "puissance": "",
    "lat": 46.102381,
    "lon": -0.924493,
    "type": "Electricite"
  },
  {
    "nom": "",
    "ville": "ÉCHILLAIS",
    "date": "Juillet 2025",
    "puissance": "15kwh",
    "lat": 45.900128,
    "lon": -0.92511,
    "type": "Batteries"
  },
  {
    "nom": "",
    "ville": "SAINTES",
    "date": "Août 2024",
    "puissance": "10kwh",
    "lat": 45.733133,
    "lon": -0.624063,
    "type": "Batteries"
  },
  {
    "nom": "",
    "ville": "NIEUL-SUR-MER",
    "date": "Février 2025",
    "puissance": "5kwh",
    "lat": 46.202683,
    "lon": -1.176917,
    "type": "Batteries"
  },
  {
    "nom": "",
    "ville": "LE THOU",
    "date": "Février 2024",
    "puissance": "10kwh",
    "lat": 46.1026,
    "lon": -0.921545,
    "type": "Batteries"
  },
  {
    "nom": "",
    "ville": "THAIRÉ",
    "date": "Juillet 2023",
    "puissance": "10kwh",
    "lat": 46.069521,
    "lon": -1.020526,
    "type": "Batteries"
  },
  {
    "nom": "",
    "ville": "LE CHÂTEAU-D'OLÉRON",
    "date": "Septembre 2023",
    "puissance": "15kwh",
    "lat": 45.869794,
    "lon": -1.196583,
    "type": "Batteries"
  },
  {
    "nom": "",
    "ville": "MARSILLY",
    "date": "Août 2024",
    "puissance": "15kwh",
    "lat": 46.241055,
    "lon": -1.138265,
    "type": "Batteries"
  },
  {
    "nom": "",
    "ville": "ANGOULINS",
    "date": "Janvier 2026",
    "puissance": "10kwh",
    "lat": 46.106427,
    "lon": -1.10477,
    "type": "Batteries"
  },
  {
    "nom": "",
    "ville": "LONGÈVES",
    "date": "Février 2025",
    "puissance": "10kwh",
    "lat": 46.391022,
    "lon": -0.945175,
    "type": "Batteries"
  },
  {
    "nom": "",
    "ville": "SAINTES",
    "date": "Novembre 2023",
    "puissance": "10kwh",
    "lat": 45.741664,
    "lon": -0.628579,
    "type": "Batteries"
  },
  {
    "nom": "",
    "ville": "ROCHEFORT",
    "date": "Août 2025",
    "puissance": "15kwh",
    "lat": 45.952835,
    "lon": -0.966629,
    "type": "Batteries"
  },
  {
    "nom": "",
    "ville": "AYTRÉ",
    "date": "Septembre 2025",
    "puissance": "15kwh",
    "lat": 46.137482,
    "lon": -1.081707,
    "type": "Batteries"
  },
  {
    "nom": "",
    "ville": "ROCHEFORT",
    "date": "Juillet 2023",
    "puissance": "5kwh",
    "lat": 45.93764,
    "lon": -0.953316,
    "type": "Batteries"
  },
  {
    "nom": "",
    "ville": "TONNAY-CHARENTE",
    "date": "Juin 2024",
    "puissance": "10kwh",
    "lat": 45.951853,
    "lon": -0.882894,
    "type": "Batteries"
  },
  {
    "nom": "",
    "ville": "LE THOU",
    "date": "Mars 2025",
    "puissance": "5kwh",
    "lat": 46.08026,
    "lon": -0.903709,
    "type": "Batteries"
  },
  {
    "nom": "",
    "ville": "FORGES",
    "date": "Septembre 2024",
    "puissance": "10kwh",
    "lat": 46.020118,
    "lon": -0.840948,
    "type": "Batteries"
  },
  {
    "nom": "",
    "ville": "LOIRE-LES-MARAIS",
    "date": "Juin 2024",
    "puissance": "15kwh",
    "lat": 45.943932,
    "lon": -0.895376,
    "type": "Batteries"
  },
  {
    "nom": "",
    "ville": "AYTRÉ",
    "date": "Décembre 2024",
    "puissance": "10kwh",
    "lat": 46.142432,
    "lon": -1.078146,
    "type": "Batteries"
  },
  {
    "nom": "",
    "ville": "COURÇON",
    "date": "Janvier 2024",
    "puissance": "10kwh",
    "lat": 46.245822,
    "lon": -0.809603,
    "type": "Batteries"
  },
  {
    "nom": "",
    "ville": "PÉRIGNY",
    "date": "Mai 2025",
    "puissance": "15kwh",
    "lat": 46.14585,
    "lon": -1.083235,
    "type": "Batteries"
  },
  {
    "nom": "",
    "ville": "SURGÈRES",
    "date": "Septembre 2024",
    "puissance": "20kwh",
    "lat": 46.098486,
    "lon": -0.753049,
    "type": "Batteries"
  },
  {
    "nom": "",
    "ville": "CHARRON",
    "date": "Octobre 2024",
    "puissance": "10kwh",
    "lat": 46.291017,
    "lon": -1.103276,
    "type": "Batteries"
  },
  {
    "nom": "",
    "ville": "CHANIERS",
    "date": "Novembre 2024",
    "puissance": "5kwh",
    "lat": 45.731118,
    "lon": -0.571989,
    "type": "Batteries"
  },
  {
    "nom": "",
    "ville": "ANGOULINS",
    "date": "Mai 2025",
    "puissance": "10kwh",
    "lat": 46.111028,
    "lon": -1.106457,
    "type": "Batteries"
  },
  {
    "nom": "",
    "ville": "YVES",
    "date": "Septembre 2024",
    "puissance": "10kwh",
    "lat": 46.021018,
    "lon": -1.007038,
    "type": "Batteries"
  },
  {
    "nom": "",
    "ville": "SAINT-PIERRE-D'OLÉRON",
    "date": "Octobre 2024",
    "puissance": "5kwh",
    "lat": 45.936832,
    "lon": -1.297011,
    "type": "Batteries"
  },
  {
    "nom": "",
    "ville": "ÉCHILLAIS",
    "date": "Septembre 2025",
    "puissance": "15kwh",
    "lat": 45.913667,
    "lon": -0.925457,
    "type": "Batteries"
  },
  {
    "nom": "",
    "ville": "THAIRÉ",
    "date": "Février 2023",
    "puissance": "5kwh",
    "lat": 46.082866,
    "lon": -1.034388,
    "type": "Batteries"
  },
  {
    "nom": "",
    "ville": "LAGORD",
    "date": "Août 2025",
    "puissance": "10kwh",
    "lat": 46.195214,
    "lon": -1.152519,
    "type": "Batteries"
  },
  {
    "nom": "",
    "ville": "PÉRIGNY",
    "date": "Juin 2024",
    "puissance": "15kwh",
    "lat": 46.160742,
    "lon": -1.099554,
    "type": "Batteries"
  },
  {
    "nom": "",
    "ville": "MARSILLY",
    "date": "Août 2025",
    "puissance": "5kwh",
    "lat": 46.237493,
    "lon": -1.13939,
    "type": "Batteries"
  },
  {
    "nom": "",
    "ville": "MARSILLY",
    "date": "Octobre 2023",
    "puissance": "20kwh",
    "lat": 46.228523,
    "lon": -1.140135,
    "type": "Batteries"
  },
  {
    "nom": "",
    "ville": "LA ROCHELLE",
    "date": "Décembre 2025",
    "puissance": "10kwh",
    "lat": 46.175245,
    "lon": -1.159458,
    "type": "Batteries"
  },
  {
    "nom": "",
    "ville": "FORGES",
    "date": "Septembre 2024",
    "puissance": "10kwh",
    "lat": 46.035108,
    "lon": -0.847957,
    "type": "Batteries"
  },
  {
    "nom": "",
    "ville": "TONNAY-CHARENTE",
    "date": "Mars 2023",
    "puissance": "10kwh",
    "lat": 45.95014,
    "lon": -0.884279,
    "type": "Batteries"
  },
  {
    "nom": "",
    "ville": "MARANS",
    "date": "Janvier 2024",
    "puissance": "5kwh",
    "lat": 46.308162,
    "lon": -0.991714,
    "type": "Batteries"
  },
  {
    "nom": "",
    "ville": "ANGOULINS",
    "date": "Juillet 2024",
    "puissance": "10kwh",
    "lat": 46.100774,
    "lon": -1.105505,
    "type": "Batteries"
  },
  {
    "nom": "",
    "ville": "SAINT-JEAN-D'ANGÉLY",
    "date": "Août 2025",
    "puissance": "10kwh",
    "lat": 45.934542,
    "lon": -0.530974,
    "type": "Batteries"
  },
  {
    "nom": "",
    "ville": "ESNANDES",
    "date": "Juin 2025",
    "puissance": "10kwh",
    "lat": 46.257412,
    "lon": -1.109312,
    "type": "Batteries"
  },
  {
    "nom": "",
    "ville": "COURÇON",
    "date": "Novembre 2025",
    "puissance": "5kwh",
    "lat": 46.235565,
    "lon": -0.823343,
    "type": "Batteries"
  },
  {
    "nom": "",
    "ville": "AIGREFEUILLE-D'AUNIS",
    "date": "Avril 2024",
    "puissance": "5kwh",
    "lat": 46.112613,
    "lon": -0.9535,
    "type": "Batteries"
  },
  {
    "nom": "",
    "ville": "MARANS",
    "date": "Mai 2025",
    "puissance": "5kwh",
    "lat": 46.31886,
    "lon": -0.979025,
    "type": "Batteries"
  },
  {
    "nom": "",
    "ville": "ANGOULINS",
    "date": "Janvier 2026",
    "puissance": "15kwh",
    "lat": 46.097008,
    "lon": -1.106637,
    "type": "Batteries"
  },
  {
    "nom": "",
    "ville": "MARSILLY",
    "date": "Avril 2024",
    "puissance": "15kwh",
    "lat": 46.239138,
    "lon": -1.153559,
    "type": "Batteries"
  },
  {
    "nom": "",
    "ville": "LUÇON",
    "date": "Décembre 2024",
    "puissance": "5kwh",
    "lat": 46.466403,
    "lon": -1.154084,
    "type": "Batteries"
  },
  {
    "nom": "",
    "ville": "SAINTE-HERMINE",
    "date": "Janvier 2026",
    "puissance": "5kwh",
    "lat": 46.557738,
    "lon": -1.054065,
    "type": "Batteries"
  },
  {
    "nom": "",
    "ville": "AYTRÉ",
    "date": "Juin 2024",
    "puissance": "15kwh",
    "lat": 46.142872,
    "lon": -1.080986,
    "type": "Batteries"
  },
  {
    "nom": "",
    "ville": "ROCHEFORT",
    "date": "Juillet 2025",
    "puissance": "10kwh",
    "lat": 45.957389,
    "lon": -0.946781,
    "type": "Batteries"
  },
  {
    "nom": "",
    "ville": "L'HOUMEAU",
    "date": "Novembre 2023",
    "puissance": "10kwh",
    "lat": 46.191789,
    "lon": -1.17876,
    "type": "Batteries"
  },
  {
    "nom": "",
    "ville": "LA ROCHELLE",
    "date": "Novembre 2024",
    "puissance": "10kwh",
    "lat": 46.164732,
    "lon": -1.135381,
    "type": "Batteries"
  },
  {
    "nom": "",
    "ville": "ARS-EN-RÉ",
    "date": "Février 2024",
    "puissance": "5kwh",
    "lat": 46.206382,
    "lon": -1.51971,
    "type": "Batteries"
  },
  {
    "nom": "",
    "ville": "BENON",
    "date": "Mars 2023",
    "puissance": "10kwh",
    "lat": 46.185798,
    "lon": -0.817566,
    "type": "Batteries"
  },
  {
    "nom": "",
    "ville": "TONNAY-CHARENTE",
    "date": "Janvier 2025",
    "puissance": "5kwh",
    "lat": 45.934241,
    "lon": -0.880808,
    "type": "Batteries"
  },
  {
    "nom": "",
    "ville": "CHAMBON",
    "date": "Septembre 2025",
    "puissance": "15kwh",
    "lat": 46.110152,
    "lon": -0.856705,
    "type": "Batteries"
  },
  {
    "nom": "",
    "ville": "LA ROCHELLE",
    "date": "Février 2024",
    "puissance": "20kwh",
    "lat": 46.152787,
    "lon": -1.134634,
    "type": "Batteries"
  },
  {
    "nom": "",
    "ville": "CHAMBON",
    "date": "Décembre 2025",
    "puissance": "5kwh",
    "lat": 46.134046,
    "lon": -0.857874,
    "type": "Batteries"
  },
  {
    "nom": "",
    "ville": "MARANS",
    "date": "Juillet 2024",
    "puissance": "15kwh",
    "lat": 46.301909,
    "lon": -0.97882,
    "type": "Batteries"
  },
  {
    "nom": "",
    "ville": "SAINT-JEAN-D'ANGÉLY",
    "date": "Janvier 2025",
    "puissance": "5kwh",
    "lat": 45.932948,
    "lon": -0.5218,
    "type": "Batteries"
  },
  {
    "nom": "",
    "ville": "ÎLE D'OLÉRON",
    "date": "Avril 2025",
    "puissance": "20kwh",
    "lat": 45.943262,
    "lon": -1.307313,
    "type": "Batteries"
  },
  {
    "nom": "",
    "ville": "LUÇON",
    "date": "Décembre 2024",
    "puissance": "10kwh",
    "lat": 46.437626,
    "lon": -1.177738,
    "type": "Batteries"
  },
  {
    "nom": "",
    "ville": "LA FLOTTE",
    "date": "Octobre 2023",
    "puissance": "10kwh",
    "lat": 46.187919,
    "lon": -1.336669,
    "type": "Batteries"
  },
  {
    "nom": "",
    "ville": "SAINT-PIERRE-D'OLÉRON",
    "date": "Septembre 2024",
    "puissance": "5kwh",
    "lat": 45.948942,
    "lon": -1.307601,
    "type": "Batteries"
  },
  {
    "nom": "",
    "ville": "CHÂTELAILLON-PLAGE",
    "date": "Janvier 2026",
    "puissance": "5kwh",
    "lat": 46.058815,
    "lon": -1.093942,
    "type": "Batteries"
  },
  {
    "nom": "",
    "ville": "ÉCHILLAIS",
    "date": "Octobre 2025",
    "puissance": "10kwh",
    "lat": 45.897504,
    "lon": -0.926791,
    "type": "Batteries"
  },
  {
    "nom": "",
    "ville": "LONGÈVES",
    "date": "Octobre 2024",
    "puissance": "5kwh",
    "lat": 46.388209,
    "lon": -0.968813,
    "type": "Batteries"
  },
  {
    "nom": "",
    "ville": "AYTRÉ",
    "date": "Mai 2024",
    "puissance": "7kw",
    "lat": 46.14432,
    "lon": -1.077413,
    "type": "Bornes"
  },
  {
    "nom": "",
    "ville": "MARSILLY",
    "date": "Octobre 2025",
    "puissance": "7kw",
    "lat": 46.233118,
    "lon": -1.146148,
    "type": "Bornes"
  },
  {
    "nom": "",
    "ville": "SAINTES",
    "date": "Septembre 2025",
    "puissance": "11kw",
    "lat": 45.7308,
    "lon": -0.624825,
    "type": "Bornes"
  },
  {
    "nom": "",
    "ville": "NUAILLÉ-D'AUNIS",
    "date": "Mars 2024",
    "puissance": "11kw",
    "lat": 46.225749,
    "lon": -0.933023,
    "type": "Bornes"
  },
  {
    "nom": "",
    "ville": "FOURAS",
    "date": "Juin 2024",
    "puissance": "22kw",
    "lat": 45.985595,
    "lon": -1.094815,
    "type": "Bornes"
  },
  {
    "nom": "",
    "ville": "ÎLE D'OLÉRON",
    "date": "Juillet 2024",
    "puissance": "7kw",
    "lat": 45.945668,
    "lon": -1.305848,
    "type": "Bornes"
  },
  {
    "nom": "",
    "ville": "ANGOULINS",
    "date": "Octobre 2025",
    "puissance": "7kw",
    "lat": 46.106316,
    "lon": -1.10236,
    "type": "Bornes"
  },
  {
    "nom": "",
    "ville": "LAGORD",
    "date": "Mai 2023",
    "puissance": "7kw",
    "lat": 46.193158,
    "lon": -1.152627,
    "type": "Bornes"
  },
  {
    "nom": "",
    "ville": "LE THOU",
    "date": "Novembre 2025",
    "puissance": "7kw",
    "lat": 46.094728,
    "lon": -0.902546,
    "type": "Bornes"
  },
  {
    "nom": "",
    "ville": "BENON",
    "date": "Août 2023",
    "puissance": "7kw",
    "lat": 46.184884,
    "lon": -0.817914,
    "type": "Bornes"
  },
  {
    "nom": "",
    "ville": "SAINTE-HERMINE",
    "date": "Septembre 2024",
    "puissance": "22kw",
    "lat": 46.57044,
    "lon": -1.059047,
    "type": "Bornes"
  },
  {
    "nom": "",
    "ville": "SAINT-PIERRE-D'OLÉRON",
    "date": "Mai 2024",
    "puissance": "7kw",
    "lat": 45.953012,
    "lon": -1.314551,
    "type": "Bornes"
  },
  {
    "nom": "",
    "ville": "ARS-EN-RÉ",
    "date": "Mars 2024",
    "puissance": "7kw",
    "lat": 46.209861,
    "lon": -1.521106,
    "type": "Bornes"
  },
  {
    "nom": "",
    "ville": "COURÇON",
    "date": "Mars 2025",
    "puissance": "22kw",
    "lat": 46.246893,
    "lon": -0.80795,
    "type": "Bornes"
  },
  {
    "nom": "",
    "ville": "AIGREFEUILLE-D'AUNIS",
    "date": "Janvier 2024",
    "puissance": "7kw",
    "lat": 46.105324,
    "lon": -0.925072,
    "type": "Bornes"
  },
  {
    "nom": "",
    "ville": "LE CHÂTEAU-D'OLÉRON",
    "date": "Août 2024",
    "puissance": "11kw",
    "lat": 45.89103,
    "lon": -1.21576,
    "type": "Bornes"
  },
  {
    "nom": "",
    "ville": "MARANS",
    "date": "Mars 2025",
    "puissance": "7kw",
    "lat": 46.30751,
    "lon": -0.989413,
    "type": "Bornes"
  },
  {
    "nom": "",
    "ville": "YVES",
    "date": "Mai 2023",
    "puissance": "7kw",
    "lat": 46.022882,
    "lon": -1.006742,
    "type": "Bornes"
  },
  {
    "nom": "",
    "ville": "PÉRIGNY",
    "date": "Juin 2025",
    "puissance": "7kw",
    "lat": 46.154,
    "lon": -1.10088,
    "type": "Bornes"
  },
  {
    "nom": "",
    "ville": "SAINT-PIERRE-D'OLÉRON",
    "date": "Août 2025",
    "puissance": "11kw",
    "lat": 45.935736,
    "lon": -1.313409,
    "type": "Bornes"
  },
  {
    "nom": "",
    "ville": "MARSILLY",
    "date": "Décembre 2023",
    "puissance": "22kw",
    "lat": 46.239068,
    "lon": -1.143314,
    "type": "Bornes"
  },
  {
    "nom": "",
    "ville": "ESNANDES",
    "date": "Janvier 2025",
    "puissance": "11kw",
    "lat": 46.248376,
    "lon": -1.127435,
    "type": "Bornes"
  },
  {
    "nom": "",
    "ville": "MURON",
    "date": "Mars 2025",
    "puissance": "11kw",
    "lat": 46.02864,
    "lon": -0.814184,
    "type": "Bornes"
  },
  {
    "nom": "",
    "ville": "CHÂTELAILLON-PLAGE",
    "date": "Mars 2025",
    "puissance": "7kw",
    "lat": 46.059085,
    "lon": -1.092689,
    "type": "Bornes"
  },
  {
    "nom": "",
    "ville": "SURGÈRES",
    "date": "Mai 2025",
    "puissance": "7kw",
    "lat": 46.109203,
    "lon": -0.767701,
    "type": "Bornes"
  },
  {
    "nom": "",
    "ville": "SAINTES",
    "date": "Avril 2024",
    "puissance": "22kw",
    "lat": 45.760622,
    "lon": -0.6451,
    "type": "Bornes"
  },
  {
    "nom": "",
    "ville": "COURÇON",
    "date": "Décembre 2025",
    "puissance": "22kw",
    "lat": 46.259795,
    "lon": -0.816334,
    "type": "Bornes"
  },
  {
    "nom": "",
    "ville": "PÉRIGNY",
    "date": "Février 2024",
    "puissance": "7kw",
    "lat": 46.153261,
    "lon": -1.083711,
    "type": "Bornes"
  },
  {
    "nom": "",
    "ville": "L'HOUMEAU",
    "date": "Mars 2024",
    "puissance": "7kw",
    "lat": 46.188381,
    "lon": -1.175902,
    "type": "Bornes"
  },
  {
    "nom": "",
    "ville": "CHARRON",
    "date": "Janvier 2026",
    "puissance": "11kw",
    "lat": 46.29293,
    "lon": -1.085924,
    "type": "Bornes"
  },
  {
    "nom": "",
    "ville": "PÉRIGNY",
    "date": "Juillet 2023",
    "puissance": "22kw",
    "lat": 46.146852,
    "lon": -1.085847,
    "type": "Bornes"
  },
  {
    "nom": "",
    "ville": "YVES",
    "date": "Septembre 2025",
    "puissance": "22kw",
    "lat": 46.020646,
    "lon": -1.002302,
    "type": "Bornes"
  },
  {
    "nom": "",
    "ville": "LONGÈVES",
    "date": "Juillet 2024",
    "puissance": "11kw",
    "lat": 46.363481,
    "lon": -0.966208,
    "type": "Bornes"
  },
  {
    "nom": "",
    "ville": "L'HOUMEAU",
    "date": "Juillet 2023",
    "puissance": "7kw",
    "lat": 46.192671,
    "lon": -1.169299,
    "type": "Bornes"
  },
  {
    "nom": "",
    "ville": "MARANS",
    "date": "Juillet 2024",
    "puissance": "7kw",
    "lat": 46.31835,
    "lon": -0.977427,
    "type": "Bornes"
  },
  {
    "nom": "",
    "ville": "MARSILLY",
    "date": "Août 2023",
    "puissance": "7kw",
    "lat": 46.228048,
    "lon": -1.146352,
    "type": "Bornes"
  },
  {
    "nom": "",
    "ville": "LE CHÂTEAU-D'OLÉRON",
    "date": "Octobre 2025",
    "puissance": "11kw",
    "lat": 45.872782,
    "lon": -1.197569,
    "type": "Bornes"
  },
  {
    "nom": "",
    "ville": "TONNAY-CHARENTE",
    "date": "Août 2024",
    "puissance": "7kw",
    "lat": 45.950938,
    "lon": -0.883234,
    "type": "Bornes"
  },
  {
    "nom": "",
    "ville": "SAINT-AGNANT",
    "date": "Décembre 2025",
    "puissance": "7kw",
    "lat": 45.859737,
    "lon": -0.990845,
    "type": "Bornes"
  },
  {
    "nom": "",
    "ville": "ÉCOYEUX",
    "date": "Janvier 2025",
    "puissance": "11kw",
    "lat": 45.8115,
    "lon": -0.453101,
    "type": "Bornes"
  },
  {
    "nom": "",
    "ville": "L'HOUMEAU",
    "date": "Octobre 2024",
    "puissance": "11kw",
    "lat": 46.201731,
    "lon": -1.169621,
    "type": "Bornes"
  },
  {
    "nom": "",
    "ville": "LA ROCHELLE",
    "date": "Janvier 2023",
    "puissance": "11kw",
    "lat": 46.155145,
    "lon": -1.134712,
    "type": "Bornes"
  },
  {
    "nom": "",
    "ville": "SAINT-PIERRE-D'OLÉRON",
    "date": "Janvier 2026",
    "puissance": "7kw",
    "lat": 45.937353,
    "lon": -1.298372,
    "type": "Bornes"
  },
  {
    "nom": "",
    "ville": "FONTCOUVERTE",
    "date": "Août 2023",
    "puissance": "7kw",
    "lat": 45.711573,
    "lon": -0.490951,
    "type": "Bornes"
  },
  {
    "nom": "",
    "ville": "SAINTE-SOULLE",
    "date": "Septembre 2025",
    "puissance": "12kwc",
    "lat": 46.184754,
    "lon": -1.020093,
    "type": "PV"
  },
  {
    "nom": "",
    "ville": "THAIRÉ",
    "date": "Janvier 2024",
    "puissance": "3kwc",
    "lat": 46.084519,
    "lon": -1.024082,
    "type": "PV"
  },
  {
    "nom": "",
    "ville": "LUÇON",
    "date": "Janvier 2026",
    "puissance": "6kwc",
    "lat": 46.447001,
    "lon": -1.171997,
    "type": "PV"
  },
  {
    "nom": "",
    "ville": "MARANS",
    "date": "Mai 2024",
    "puissance": "3kwc",
    "lat": 46.310367,
    "lon": -0.993341,
    "type": "PV"
  },
  {
    "nom": "",
    "ville": "SAINT-ROGATIEN",
    "date": "Juin 2024",
    "puissance": "3kwc",
    "lat": 46.141913,
    "lon": -1.073379,
    "type": "PV"
  },
  {
    "nom": "",
    "ville": "NIEUL-SUR-MER",
    "date": "Janvier 2026",
    "puissance": "3kwc",
    "lat": 46.198518,
    "lon": -1.16522,
    "type": "PV"
  },
  {
    "nom": "",
    "ville": "SAINTE-SOULLE",
    "date": "Décembre 2025",
    "puissance": "3kwc",
    "lat": 46.189593,
    "lon": -1.022083,
    "type": "PV"
  },
  {
    "nom": "",
    "ville": "MARANS",
    "date": "Janvier 2023",
    "puissance": "6kwc",
    "lat": 46.308475,
    "lon": -0.999863,
    "type": "PV"
  },
  {
    "nom": "",
    "ville": "NIEUL-SUR-MER",
    "date": "Avril 2023",
    "puissance": "3kwc",
    "lat": 46.204848,
    "lon": -1.164887,
    "type": "PV"
  },
  {
    "nom": "",
    "ville": "SURGÈRES",
    "date": "Novembre 2023",
    "puissance": "6kwc",
    "lat": 46.100574,
    "lon": -0.74913,
    "type": "PV"
  },
  {
    "nom": "",
    "ville": "LUÇON",
    "date": "Juillet 2023",
    "puissance": "9kwc",
    "lat": 46.455857,
    "lon": -1.169256,
    "type": "PV"
  },
  {
    "nom": "",
    "ville": "THAIRÉ",
    "date": "Décembre 2024",
    "puissance": "12kwc",
    "lat": 46.084518,
    "lon": -1.030821,
    "type": "PV"
  },
  {
    "nom": "",
    "ville": "ANGOULINS",
    "date": "Janvier 2026",
    "puissance": "6kwc",
    "lat": 46.115702,
    "lon": -1.108838,
    "type": "PV"
  },
  {
    "nom": "",
    "ville": "CHÂTELAILLON-PLAGE",
    "date": "Juin 2025",
    "puissance": "6kwc",
    "lat": 46.06628,
    "lon": -1.086965,
    "type": "PV"
  },
  {
    "nom": "",
    "ville": "PÉRIGNY",
    "date": "Septembre 2023",
    "puissance": "7,5kwc",
    "lat": 46.14095,
    "lon": -1.095232,
    "type": "PV"
  },
  {
    "nom": "",
    "ville": "NIEUL-SUR-MER",
    "date": "Avril 2025",
    "puissance": "6kwc",
    "lat": 46.206929,
    "lon": -1.162707,
    "type": "PV"
  },
  {
    "nom": "",
    "ville": "AIGREFEUILLE-D'AUNIS",
    "date": "Octobre 2024",
    "puissance": "6kwc",
    "lat": 46.11786,
    "lon": -0.939287,
    "type": "PV"
  },
  {
    "nom": "",
    "ville": "THAIRÉ",
    "date": "Janvier 2026",
    "puissance": "6kwc",
    "lat": 46.076113,
    "lon": -1.018912,
    "type": "PV"
  },
  {
    "nom": "",
    "ville": "ROCHEFORT",
    "date": "Janvier 2026",
    "puissance": "6kwc",
    "lat": 45.947735,
    "lon": -0.95197,
    "type": "PV"
  },
  {
    "nom": "",
    "ville": "NIEUL-SUR-MER",
    "date": "Avril 2025",
    "puissance": "3kwc",
    "lat": 46.200883,
    "lon": -1.161537,
    "type": "PV"
  },
  {
    "nom": "",
    "ville": "FONTENAY-LE-COMTE",
    "date": "Août 2023",
    "puissance": "",
    "lat": 46.473887,
    "lon": -0.809658,
    "type": "PAC"
  },
  {
    "nom": "",
    "ville": "SAINT-XANDRE",
    "date": "Septembre 2025",
    "puissance": "",
    "lat": 46.202849,
    "lon": -1.104647,
    "type": "PAC"
  },
  {
    "nom": "",
    "ville": "PÉRIGNY",
    "date": "Novembre 2024",
    "puissance": "",
    "lat": 46.146002,
    "lon": -1.085619,
    "type": "PAC"
  },
  {
    "nom": "",
    "ville": "THAIRÉ",
    "date": "Novembre 2023",
    "puissance": "",
    "lat": 46.072717,
    "lon": -1.023723,
    "type": "PAC"
  },
  {
    "nom": "",
    "ville": "FONTENAY-LE-COMTE",
    "date": "Août 2023",
    "puissance": "",
    "lat": 46.460875,
    "lon": -0.813835,
    "type": "PAC"
  },
  {
    "nom": "",
    "ville": "ANGOULINS",
    "date": "Janvier 2026",
    "puissance": "",
    "lat": 46.106176,
    "lon": -1.10283,
    "type": "PAC"
  },
  {
    "nom": "",
    "ville": "SAINTES",
    "date": "Mars 2023",
    "puissance": "",
    "lat": 45.741657,
    "lon": -0.628528,
    "type": "PAC"
  },
  {
    "nom": "",
    "ville": "ROCHEFORT",
    "date": "Mai 2025",
    "puissance": "",
    "lat": 45.945871,
    "lon": -0.960067,
    "type": "PAC"
  },
  {
    "nom": "",
    "ville": "CROIX-CHAPEAU",
    "date": "Février 2025",
    "puissance": "",
    "lat": 46.107737,
    "lon": -0.998917,
    "type": "PAC"
  },
  {
    "nom": "",
    "ville": "AYTRÉ",
    "date": "Avril 2024",
    "puissance": "",
    "lat": 46.132442,
    "lon": -1.085924,
    "type": "PAC"
  },
  {
    "nom": "",
    "ville": "DOMPIERRE-SUR-MER",
    "date": "Septembre 2025",
    "puissance": "",
    "lat": 46.182858,
    "lon": -1.07356,
    "type": "VMC"
  },
  {
    "nom": "",
    "ville": "SAINTES",
    "date": "Août 2025",
    "puissance": "",
    "lat": 45.743806,
    "lon": -0.628814,
    "type": "Electricite"
  },
  {
    "nom": "",
    "ville": "CHÂTELAILLON-PLAGE",
    "date": "Novembre 2024",
    "puissance": "",
    "lat": 46.073863,
    "lon": -1.08401,
    "type": "Electricite"
  },
  {
    "nom": "",
    "ville": "NIEUL-SUR-MER",
    "date": "Octobre 2024",
    "puissance": "",
    "lat": 46.197937,
    "lon": -1.171606,
    "type": "Electricite"
  },
  {
    "nom": "",
    "ville": "PUILBOREAU",
    "date": "Juin 2025",
    "puissance": "",
    "lat": 46.180814,
    "lon": -1.115024,
    "type": "Electricite"
  },
  {
    "nom": "",
    "ville": "ROCHEFORT",
    "date": "Mars 2025",
    "puissance": "",
    "lat": 45.947993,
    "lon": -0.955885,
    "type": "Electricite"
  },
  {
    "nom": "",
    "ville": "AIGREFEUILLE-D'AUNIS",
    "date": "Février 2025",
    "puissance": "",
    "lat": 46.111868,
    "lon": -0.935601,
    "type": "Electricite"
  },
  {
    "nom": "",
    "ville": "THAIRÉ",
    "date": "Décembre 2025",
    "puissance": "",
    "lat": 46.072527,
    "lon": -1.024403,
    "type": "Electricite"
  },
  {
    "nom": "",
    "ville": "CHÂTELAILLON-PLAGE",
    "date": "Janvier 2025",
    "puissance": "",
    "lat": 46.079891,
    "lon": -1.089126,
    "type": "Electricite"
  },
  {
    "nom": "",
    "ville": "CROIX-CHAPEAU",
    "date": "Décembre 2024",
    "puissance": "",
    "lat": 46.106328,
    "lon": -1.008238,
    "type": "Electricite"
  },
  {
    "nom": "",
    "ville": "ROCHEFORT",
    "date": "Juillet 2024",
    "puissance": "",
    "lat": 45.946419,
    "lon": -0.958633,
    "type": "Electricite"
  },
  {
    "nom": "",
    "ville": "SURGÈRES",
    "date": "Mars 2025",
    "puissance": "",
    "lat": 46.113055,
    "lon": -0.753587,
    "type": "Electricite"
  },
  {
    "nom": "",
    "ville": "LAGORD",
    "date": "Octobre 2023",
    "puissance": "10kwh",
    "lat": 46.194868,
    "lon": -1.154456,
    "type": "Batteries"
  },
  {
    "nom": "",
    "ville": "DOMPIERRE SUR MER",
    "date": "Mars 2023",
    "puissance": "15kwh",
    "lat": 46.184143,
    "lon": -1.067097,
    "type": "Batteries"
  },
  {
    "nom": "",
    "ville": "SAINT SULPICE DE ROYAN",
    "date": "Septembre 2025",
    "puissance": "5kwh",
    "lat": 45.671293,
    "lon": -1.012713,
    "type": "Batteries"
  },
  {
    "nom": "",
    "ville": " MOUTIERS LES MAUXFAITS",
    "date": "Mai 2024",
    "puissance": "10kwh",
    "lat": 46.490923,
    "lon": -1.423897,
    "type": "Batteries"
  },
  {
    "nom": "",
    "ville": "ROCHEFORT",
    "date": "Juin 2025",
    "puissance": "20kwh",
    "lat": 45.950239,
    "lon": -0.963739,
    "type": "Batteries"
  },
  {
    "nom": "",
    "ville": "LOIRE-LES-MARAIS",
    "date": "Janvier 2026",
    "puissance": "5kwh",
    "lat": 45.965174,
    "lon": -0.887629,
    "type": "Batteries"
  },
  {
    "nom": "",
    "ville": "BORS",
    "date": "Février 2024",
    "puissance": "10kwh",
    "lat": 45.327196,
    "lon": -0.194356,
    "type": "Batteries"
  },
  {
    "nom": "",
    "ville": "LOIRE-LES-MARAIS",
    "date": "Septembre 2023",
    "puissance": "7kw",
    "lat": 45.945402,
    "lon": -0.895867,
    "type": "Bornes"
  },
  {
    "nom": "",
    "ville": "ECHEBRUNE",
    "date": "Juin 2025",
    "puissance": "7kw",
    "lat": 45.577659,
    "lon": -0.447278,
    "type": "Bornes"
  },
  {
    "nom": "",
    "ville": "ESNANDES",
    "date": "Juillet 2024",
    "puissance": "7kw",
    "lat": 46.250393,
    "lon": -1.097751,
    "type": "Bornes"
  },
  {
    "nom": "",
    "ville": "AYTRÉ",
    "date": "Avril 2023",
    "puissance": "11kw",
    "lat": 46.138135,
    "lon": -1.081289,
    "type": "Bornes"
  },
  {
    "nom": "",
    "ville": "ARS-EN-RÉ",
    "date": "Mai 2023",
    "puissance": "11kw",
    "lat": 46.208684,
    "lon": -1.519771,
    "type": "Bornes"
  },
  {
    "nom": "",
    "ville": "CHASSENEUIL-DU-POITOU",
    "date": "Mars 2024",
    "puissance": "3kwc",
    "lat": 46.638525,
    "lon": 0.354236,
    "type": "PV"
  },
  {
    "nom": "",
    "ville": "JONZAC",
    "date": "Janvier 2023",
    "puissance": "9kwc",
    "lat": 45.444401,
    "lon": -0.445326,
    "type": "PV"
  },
  {
    "nom": "",
    "ville": "SAINT-JEAN-D'ANGÉLY",
    "date": "Mai 2025",
    "puissance": "3kwc",
    "lat": 45.932065,
    "lon": -0.519241,
    "type": "PV"
  },
  {
    "nom": "",
    "ville": "THOUARS",
    "date": "Novembre 2025",
    "puissance": "7,5kwc",
    "lat": 46.972376,
    "lon": -0.20359,
    "type": "PV"
  },
  {
    "nom": "",
    "ville": "PARTHENAY",
    "date": "Mars 2024",
    "puissance": "9kwc",
    "lat": 46.63728,
    "lon": -0.260376,
    "type": "PV"
  },
  {
    "nom": "",
    "ville": "LUSIGNAN",
    "date": "Octobre 2025",
    "puissance": "9kwc",
    "lat": 46.443063,
    "lon": 0.130914,
    "type": "PV"
  },
  {
    "nom": "",
    "ville": "ROCHEFORT",
    "date": "Août 2025",
    "puissance": "6kwc",
    "lat": 45.939312,
    "lon": -0.944613,
    "type": "PV"
  },
  {
    "nom": "",
    "ville": "SOYAUX",
    "date": "Septembre 2023",
    "puissance": "3kwc",
    "lat": 45.661337,
    "lon": 0.202575,
    "type": "PV"
  },
  {
    "nom": "",
    "ville": "VIVONNE",
    "date": "Mai 2025",
    "puissance": "9kwc",
    "lat": 46.433297,
    "lon": 0.269509,
    "type": "PV"
  },
  {
    "nom": "",
    "ville": "COGNAC",
    "date": "Janvier 2024",
    "puissance": "7,5kwc",
    "lat": 45.707519,
    "lon": -0.339867,
    "type": "PV"
  },
  {
    "nom": "",
    "ville": "POITIERS",
    "date": "Septembre 2025",
    "puissance": "9kwc",
    "lat": 46.590583,
    "lon": 0.350931,
    "type": "PV"
  },
  {
    "nom": "",
    "ville": "ROCHEFORT",
    "date": "Décembre 2025",
    "puissance": "12kwc",
    "lat": 45.934012,
    "lon": -0.959485,
    "type": "PV"
  },
  {
    "nom": "",
    "ville": "BEAUVOIR-SUR-NIORT",
    "date": "Janvier 2026",
    "puissance": "7,5kwc",
    "lat": 46.188867,
    "lon": -0.471362,
    "type": "PV"
  },
  {
    "nom": "",
    "ville": "MONTMORILLON",
    "date": "Mars 2025",
    "puissance": "6kwc",
    "lat": 46.439658,
    "lon": 0.878868,
    "type": "PV"
  },
  {
    "nom": "",
    "ville": "SEGONZAC",
    "date": "Juillet 2025",
    "puissance": "7,5kwc",
    "lat": 45.625264,
    "lon": -0.223971,
    "type": "PV"
  },
  {
    "nom": "",
    "ville": "ROCHEFORT",
    "date": "Mars 2024",
    "puissance": "7,5kwc",
    "lat": 45.933038,
    "lon": -0.955036,
    "type": "PV"
  },
  {
    "nom": "",
    "ville": "COZES",
    "date": "Juin 2025",
    "puissance": "6kwc",
    "lat": 45.594885,
    "lon": -0.83202,
    "type": "PV"
  },
  {
    "nom": "",
    "ville": "BEAUVOIR-SUR-NIORT",
    "date": "Juin 2024",
    "puissance": "3kwc",
    "lat": 46.169746,
    "lon": -0.455427,
    "type": "PV"
  },
  {
    "nom": "",
    "ville": "SEGONZAC",
    "date": "Mai 2025",
    "puissance": "6kwc",
    "lat": 45.60869,
    "lon": -0.222038,
    "type": "PV"
  },
  {
    "nom": "",
    "ville": "TONNAY-CHARENTE",
    "date": "Juin 2025",
    "puissance": "7,5kwc",
    "lat": 45.955108,
    "lon": -0.880547,
    "type": "PV"
  },
  {
    "nom": "",
    "ville": "MONTMORILLON",
    "date": "Février 2024",
    "puissance": "3kwc",
    "lat": 46.44021,
    "lon": 0.883472,
    "type": "PV"
  },
  {
    "nom": "",
    "ville": "TONNAY-CHARENTE",
    "date": "Août 2025",
    "puissance": "3kwc",
    "lat": 45.959792,
    "lon": -0.900112,
    "type": "PV"
  },
  {
    "nom": "",
    "ville": "JARNAC",
    "date": "Février 2024",
    "puissance": "6kwc",
    "lat": 45.675052,
    "lon": -0.175476,
    "type": "PV"
  },
  {
    "nom": "",
    "ville": "SAINTES",
    "date": "Juin 2024",
    "puissance": "9kwc",
    "lat": 45.732017,
    "lon": -0.639096,
    "type": "PV"
  },
  {
    "nom": "",
    "ville": "JAUNAY-MARIGNY",
    "date": "Juillet 2025",
    "puissance": "3kwc",
    "lat": 46.693787,
    "lon": 0.373797,
    "type": "PV"
  },
  {
    "nom": "",
    "ville": "MELLE",
    "date": "Septembre 2024",
    "puissance": "9kwc",
    "lat": 46.212177,
    "lon": -0.156824,
    "type": "PV"
  },
  {
    "nom": "",
    "ville": "ROYAN",
    "date": "Décembre 2024",
    "puissance": "7,5kwc",
    "lat": 45.624193,
    "lon": -1.04108,
    "type": "PV"
  },
  {
    "nom": "",
    "ville": "MONTMORILLON",
    "date": "Octobre 2023",
    "puissance": "6kwc",
    "lat": 46.414322,
    "lon": 0.877705,
    "type": "PV"
  },
  {
    "nom": "",
    "ville": "TONNAY-CHARENTE",
    "date": "Juillet 2024",
    "puissance": "6kwc",
    "lat": 45.936388,
    "lon": -0.906341,
    "type": "PV"
  },
  {
    "nom": "",
    "ville": "POITIERS",
    "date": "Août 2024",
    "puissance": "3kwc",
    "lat": 46.567928,
    "lon": 0.327796,
    "type": "PV"
  },
  {
    "nom": "",
    "ville": "ANGOULÊME",
    "date": "Avril 2024",
    "puissance": "9kwc",
    "lat": 45.651898,
    "lon": 0.157693,
    "type": "PV"
  },
  {
    "nom": "",
    "ville": "SOYAUX",
    "date": "Août 2024",
    "puissance": "3kwc",
    "lat": 45.643832,
    "lon": 0.191885,
    "type": "PV"
  },
  {
    "nom": "",
    "ville": "SAINTES",
    "date": "Février 2025",
    "puissance": "6kwc",
    "lat": 45.742402,
    "lon": -0.626596,
    "type": "PV"
  },
  {
    "nom": "",
    "ville": "FONTENAY-LE-COMTE",
    "date": "Décembre 2024",
    "puissance": "6kwc",
    "lat": 46.45264,
    "lon": -0.818525,
    "type": "PV"
  },
  {
    "nom": "",
    "ville": "POITIERS",
    "date": "Octobre 2025",
    "puissance": "6kwc",
    "lat": 46.572586,
    "lon": 0.337267,
    "type": "PV"
  },
  {
    "nom": "",
    "ville": "MONTMORILLON",
    "date": "Juillet 2025",
    "puissance": "6kwc",
    "lat": 46.414374,
    "lon": 0.869029,
    "type": "PV"
  },